,Address - From Geocoder,Company_Name,Date_Added,File_List,Geocode Score,Header,Latitude,Longitude,Match Score,Query,Text
0,"1 Richmond Sq, Providence, RI",Corporate Associates Inc,2019-03-22,['cd1990/entry/1990_Page_86 (1)_6.png'],100.0,AIRCRAFT CHARTER AND RENTAL SERVICE,41.82708605010156,-71.38162699281663,95.5,1 RICHMOND SQ PROVIDENCE,Corporate Associates Inc 1 Richmond 8q
1,"1860 Mineral Spring Ave, Providence, RI",Blackstone Limousine Service,2019-03-22,"['cd1990/entry/1990_Page_86 (1)_9.png', 'cd1990/entry/1990_Page_86 (1)_10.png']",100.0,AIRPORT LIMOUSINE SERVICE,41.86111003649965,-71.46384384763154,100.0,1860 MINERAL SPRING AV PROVIDENCE,Blackstone Limousine Service 1860 Mineral Spring Av (NP)
2,"26 Miner St, Providence, RI",J J F Ill Chauffering Inc,2019-03-22,['cd1990/entry/1990_Page_86 (1)_11.png'],100.0,AIRPORT LIMOUSINE SERVICE,41.875724178714016,-71.43669862221977,100.0,26 MINER ST PROVIDENCE,J J F Ill Chauffering Inc 26 Miner St
3,"125 Sackett St, Providence, RI",Osborne Limousine Service,2019-03-22,['cd1990/entry/1990_Page_86 (1)_12.png'],100.0,AIRPORT LIMOUSINE SERVICE,41.79451852337745,-71.41767770846272,100.0,125 SACKETT ST PROVIDENCE,Osborne Limousine Service 125 Sackett St
4,"1410 Mineral Spring Ave, Providence, RI",Sophisticated Limousine Service Rear,2019-03-22,"['cd1990/entry/1990_Page_86 (1)_13.png', 'cd1990/entry/1990_Page_86 (1)_14.png']",100.0,AIRPORT LIMOUSINE SERVICE,41.86648886459013,-71.44115713052629,100.0,1410 MINERAL SPRING AV PROVIDENCE,Sophisticated Limousine Service Rear 1410 Mineral Spring Av (NP)
5,"400 Harris Ave, Providence, RI",Arconium Specialty Alloys (Div Of A J Oster),2019-03-22,"['cd1990/entry/1990_Page_86 (1)_16.png', 'cd1990/entry/1990_Page_86 (1)_17.png']",100.0,ALLOYS,41.824923336639564,-71.43346967081368,100.0,400 HARRIS AVE PROVIDENCE,Arconium Specialty Alloys (Div Of A J Oster) 400 Harris Av
6,"334 Westminster St, Providence, RI",Classic Alterations,2019-03-22,"['cd1990/entry/1990_Page_86 (1)_19.png', 'cd1990/entry/1990_Page_86 (1)_20.png']",100.0,ALTERATION SHOPS,41.821761337546285,-71.41410007166016,100.0,334 WESTMINSTER ST PROVIDENCE,Classic Alterations 334 Westminster St Rm 323
7,"1224 Smith St, Providence, RI",Lucy's Alterations Rear,2019-03-22,['cd1990/entry/1990_Page_86 (1)_21.png'],100.0,ALTERATION SHOPS,41.84612999840426,-71.45203143840119,100.0,1224 SMITH ST PROVIDENCE,"""Lucy's Alterations Rear 1224 Smith St"""
8,"16 Depew St, Providence, RI",Sweeney Annette Mrs,2019-03-22,['cd1990/entry/1990_Page_86 (1)_22.png'],100.0,ALTERATION SHOPS,41.783047417429415,-71.419400538544,100.0,16 DEPEW ST PROVIDENCE,Sweeney Annette Mrs 16 Depew St
9,"1394 Douglas Ave, Providence, RI",Tiffany Creations,2019-03-22,['cd1990/entry/1990_Page_86 (1)_23.png'],100.0,ALTERATION SHOPS,41.863153028066115,-71.45294704528075,100.0,1394 DOUGLAS AVE PROVIDENCE,Tiffany Creations 1394 Douglas Av (NP)
10,"6 Sibyl St, Providence, RI",Caldarone Aluminum Prod,2019-03-22,['cd1990/entry/1990_Page_86 (1)_26.png'],100.0,ALUMINUM PRODUCTS DEALERS,41.810553980509006,-71.45878299120858,100.0,6 SIBYL ST PROVIDENCE,Caldarone Aluminum Prod 6 Sibyl St
11,"292 Academy Ave, Providence, RI",Mount Pleasant Aluminum Prods Inc,2019-03-22,"['cd1990/entry/1990_Page_86 (1)_29.png', 'cd1990/entry/1990_Page_86 (1)_30.png']",100.0,ALUMINUM PRODUCTS DEALERS,41.83280288228465,-71.44455733242506,100.0,292 ACADEMY AVE PROVIDENCE,Mount Pleasant Aluminum Prods Inc 292 Academy Av
12,"43 Troy St, Providence, RI",Built Rite Aluminum Products,2019-03-22,['cd1990/entry/1990_Page_86 (1)_33.png'],100.0,ALUMINUM PRODUCTS MFRS,41.81534749039849,-71.44160556340452,100.0,43 TROY ST PROVIDENCE,Built Rite Aluminum Products 43 Troy St
13,"90 Ives St, Providence, RI",Providence Ambulatory Health Care Foundatio,2019-03-22,"['cd1990/entry/1990_Page_86 (1)_35.png', 'cd1990/entry/1990_Page_86 (1)_36.png']",100.0,AMBULANCE SERVICE,41.82084977111281,-71.39194738107952,100.0,90 IVES ST PROVIDENCE,Providence Ambulatory Health Care Foundation 90 Ives St
14,"460 Douglas Ave, Providence, RI",Universal Ambulance Service Inc,2019-03-22,"['cd1990/entry/1990_Page_86 (1)_37.png', 'cd1990/entry/1990_Page_86 (1)_38.png']",100.0,AMBULANCE SERVICE,41.842745264737516,-71.42772718523362,100.0,460 DOUGLAS AVE PROVIDENCE,Universal Ambulance Service Inc 460 Douglas Av
15,"1060 Charles St, Providence, RI",Del's Music Co,2019-03-22,['cd1990/entry/1990_Page_86 (1)_41.png'],100.0,AMUSEMENT MACHINES- COIN OPERATED,41.867860151988005,-71.42504262997473,100.0,1060 CHARLES ST PROVIDENCE,"""Del's Music Co 1060 Charles St (NP)"""
16,"75 Empire St, Providence, RI",Fantasy World,2019-03-22,['cd1990/entry/1990_Page_86 (1)_45.png'],100.0,AMUSEMENT PLACES,41.82137118588273,-71.41572811509216,100.0,75 EMPIRE ST PROVIDENCE,Fantasy World 75 Empire St
17,"41 Rialto St, Providence, RI",Mt Pleasant Stadium,2019-03-22,['cd1990/entry/1990_Page_86 (1)_46.png'],100.0,AMUSEMENT PLACES,41.83732264290835,-71.45204593595649,100.0,41 RIALTO ST PROVIDENCE,Mt Pleasant Stadium 41 Rialto St
18,"44 Arthur Ave, Providence, RI",Parente Amusement Co,2019-03-22,"['cd1990/entry/1990_Page_86 (1)_47.png', 'cd1990/entry/1990_Page_86 (1)_48.png']",100.0,AMUSEMENT PLACES,41.863663172331876,-71.43211357319345,90.0,44 ARTHUR AVE PROVIDENCE,Parente Amusement Co 44 Mc Arthur Dr (NP)
19,"11 Rockwell St, Providence, RI",Rockwell Amusements,2019-03-22,['cd1990/entry/1990_Page_86 (1)_49.png'],100.0,AMUSEMENT PLACES,41.863277553081886,-71.45669678101787,100.0,11 ROCKWELL ST PROVIDENCE,Rockwell Amusements 11 Rockwell St (NP)
20,"200 Atwells Ave, Providence, RI",Terino Arcade,2019-03-22,['cd1990/entry/1990_Page_86 (1)_50.png'],100.0,AMUSEMENT PLACES,41.82339039351558,-71.42454182254113,100.0,200 ATWELLS AVE PROVIDENCE,Terino Arcade 200 Atwells Av
21,"12 Loring Ln, Providence, RI",Matteos Peter,2019-03-22,['cd1990/entry/1990_Page_86 (1)_52.png'],100.0,ANALYSTS,41.8714675893332,-71.45069175378283,80.0,12 LORING LN PROVIDENCE,Matteos Peter 12 Lori Dr (NP)
22,"102 Carrington Ave, Providence, RI",Vadeboncoeur Claire,2019-03-22,['cd1990/entry/1990_Page_86 (1)_53.png'],100.0,ANALYSTS,41.83667384703993,-71.40100419427215,100.0,102 CARRINGTON AVE PROVIDENCE,Vadeboncoeur Claire 102 Carrington Av
23,"1177 Elmwood Ave, Providence, RI",Belinsky Animal Hospital Inc,2019-03-22,"['cd1990/entry/1990_Page_86 (2)_2.png', 'cd1990/entry/1990_Page_86 (2)_3.png']",100.0,ANIMAL HOSPITALS,41.77952297285905,-71.42048779002324,100.0,1177 ELMWOOD AV PROVIDENCE,Belinsky Animal Hospital Inc 1177 Elmwood AV
24,"203 Gano St, Providence, RI",Cat Clinic,2019-03-22,['cd1990/entry/1990_Page_86 (2)_4.png'],100.0,ANIMAL HOSPITALS,41.82602286231455,-71.3903722734024,100.0,203 GANO ST PROVIDENCE,Cat Clinic 203 Gano St
25,"215 High Service Ave, Providence, RI",Ferguson Animal Hospital,2019-03-22,"['cd1990/entry/1990_Page_86 (2)_5.png', 'cd1990/entry/1990_Page_86 (2)_6.png']",100.0,ANIMAL HOSPITALS,41.85699724014163,-71.46065354019436,100.0,215 HIGH SERVICE AVE PROVIDENCE,Ferguson Animal Hospital 215 High Service Av (NP)
26,"34 Elbow St, Providence, RI",PROVIDENCE ANIMAL RESCUE LEAGUE,2019-03-22,"['cd1990/entry/1990_Page_86 (2)_8.png', 'cd1990/entry/1990_Page_86 (2)_9.png', 'cd1990/entry/1990_Page_86 (2)_10.png', 'cd1990/entry/1990_Page_86 (2)_11.png']",100.0,*ANIMAL SHELTERS,41.81800109736712,-71.41002601458631,100.0,34 ELBOW ST PROVIDENCE,"PROVIDENCE ANIMAL RESCUE LEAGUE 34 Elbow St (02903), Tel (401) 421- 1399"
27,"134 Thurbers Ave, Providence, RI",Chain Anodizers Inc,2019-03-22,['cd1990/entry/1990_Page_86 (2)_13.png'],100.0,ANODIZING,41.799917207003034,-71.40576401923154,100.0,134 THURBERS AVE PROVIDENCE,Chain Anodizers Inc 134 Thurbers Av
28,"1 Roberta St, Providence, RI",Rhode Island Enterprises,2019-03-22,['cd1990/entry/1990_Page_86 (2)_14.png'],100.0,ANODIZING,41.86090281467253,-71.43921851817717,100.0,1 ROBERTA ST PROVIDENCE,Rhode Island Enterprises 1 Roberta St (NP)
29,"745 Westminster St, Providence, RI",All Time's Antique,2019-03-22,['cd1990/entry/1990_Page_86 (2)_25.png'],100.0,ANTIQUES-DEALERS AND RESTORERS,41.818232960244885,-71.42033176508049,100.0,745 WESTMINSTER ST PROVIDENCE,"""All Time's Antique 745 Westminster St"""
30,"460 Wickenden St, Providence, RI",Antique Furnishings,2019-03-22,['cd1990/entry/1990_Page_86 (2)_26.png'],100.0,ANTIQUES-DEALERS AND RESTORERS,41.82021316542875,-71.39404713882723,100.0,460 WICKENDEN ST PROVIDENCE,Antique Furnishings 460 Wickenden St
31,"125 Benefit St, Providence, RI",Benefit Street Antiques,2019-03-22,['cd1990/entry/1990_Page_86 (2)_27.png'],100.0,ANTIQUES-DEALERS AND RESTORERS,41.82993909947554,-71.40862704744123,100.0,125 BENEFIT ST PROVIDENCE,Benefit Street Antiques 125 Benefit St
32,"265 Benefit St, Providence, RI",Benefit Street Gallery & Antiques,2019-03-22,"['cd1990/entry/1990_Page_86 (2)_28.png', 'cd1990/entry/1990_Page_86 (2)_29.png']",100.0,ANTIQUES-DEALERS AND RESTORERS,41.82537254303884,-71.40628089788338,100.0,265 BENEFIT ST PROVIDENCE,Benefit Street Gallery & Antiques 265 Benefit St
33,"773 Blackstone Blvd, Providence, RI",Boulevard Antiques,2019-03-22,['cd1990/entry/1990_Page_86 (2)_30.png'],100.0,ANTIQUES-DEALERS AND RESTORERS,41.856499601008125,-71.39088140414546,100.0,773 BLACKSTONE BLVD PROVIDENCE,Boulevard Antiques 773 Blackstone Blvd
34,"188 Wayland Ave, Providence, RI",Chamberlain Antiques,2019-03-22,['cd1990/entry/1990_Page_86 (2)_31.png'],100.0,ANTIQUES-DEALERS AND RESTORERS,41.828652593078886,-71.38844775792245,100.0,188 WAYLAND AVE PROVIDENCE,Chamberlain Antiques 188 Wayland Av
35,"6 Veazie St, Providence, RI",F M Collections,2019-03-22,['cd1990/entry/1990_Page_86 (2)_33.png'],100.0,ANTIQUES-DEALERS AND RESTORERS,41.8466136637551,-71.42982283836628,100.0,6 VEAZIE ST PROVIDENCE,F M Collections 6 Veazie St
36,"34 Governor St, Providence, RI",J B Antiques,2019-03-22,['cd1990/entry/1990_Page_86 (2)_35.png'],100.0,ANTIQUES-DEALERS AND RESTORERS,41.821361869350085,-71.39384708705654,100.0,34 GOVERNOR ST PROVIDENCE,J B Antiques 34 Governor St
37,"5 Traverse St, Providence, RI",Jerrys Gallery,2019-03-22,['cd1990/entry/1990_Page_86 (2)_38.png'],100.0,ANTIQUES-DEALERS AND RESTORERS,41.81930313493407,-71.39971291947727,100.0,5 TRAVERSE ST PROVIDENCE,Jerrys Gallery 5 Traverse St
38,"211 Weybosset St, Providence, RI",Little Shop Around The Corner The,2019-03-22,"['cd1990/entry/1990_Page_86 (2)_39.png', 'cd1990/entry/1990_Page_86 (2)_40.png']",100.0,ANTIQUES-DEALERS AND RESTORERS,41.821627747787645,-71.41246675213057,100.0,211 WEYBOSSET ST PROVIDENCE,Little Shop Around The Corner The 211 Weybosset St
39,"76 Longmont St, Providence, RI",Loffredo Frank,2019-03-22,['cd1990/entry/1990_Page_86 (2)_41.png'],100.0,ANTIQUES-DEALERS AND RESTORERS,41.84603549150854,-71.42229286410743,100.0,76 LONGMONT ST PROVIDENCE,Loffredo Frank 76 Longmont St
40,"1046 Chalkstone Ave, Providence, RI",Man In The Moo,2019-03-22,['cd1990/entry/1990_Page_86 (2)_42.png'],100.0,ANTIQUES-DEALERS AND RESTORERS,41.83227260008038,-71.44255275603149,100.0,1046 CHALKSTONE AVE PROVIDENCE,Man In The Moon 1046 Chalkstone Av
41,"130 Westminster St, Providence, RI",My Favorite Things,2019-03-22,"['cd1990/entry/1990_Page_86 (2)_43.png', 'cd1990/entry/1990_Page_86 (2)_44.png']",100.0,ANTIQUES-DEALERS AND RESTORERS,41.824116021781634,-71.41083756529554,100.0,130 WESTMINSTER ST PROVIDENCE,My Favorite Things 130 Westminster St Rm 71
42,"736 Hope St, Providence, RI",Pre-Amble,2019-03-22,['cd1990/entry/1990_Page_86 (2)_45.png'],100.0,ANTIQUES-DEALERS AND RESTORERS,41.84676173047347,-71.3961992600487,100.0,736 HOPE ST PROVIDENCE,Pre-Amble 736 Hope St
43,"220 Academy Ave, Providence, RI",Precious Line,2019-03-22,['cd1990/entry/1990_Page_86 (2)_46.png'],100.0,ANTIQUES-DEALERS AND RESTORERS,41.83075150223052,-71.44434551471322,100.0,220 ACADEMY AVE PROVIDENCE,Precious Line 220 Academy Av
44,"294 Manton Ave, Providence, RI",S & S Antiques,2019-03-22,['cd1990/entry/1990_Page_86 (2)_47.png'],100.0,ANTIQUES-DEALERS AND RESTORERS,41.822563843930745,-71.45011389753367,100.0,294 MANTON AVE PROVIDENCE,S & S Antiques 294 Manton Av
45,"85 Irving Ave, Providence, RI",Saint Germain Eliz S Mrs,2019-03-22,['cd1990/entry/1990_Page_86 (2)_48.png'],100.0,ANTIQUES-DEALERS AND RESTORERS,41.8330861048864,-71.38938900130387,100.0,85 IRVING AVE PROVIDENCE,Saint Germain Eliz S Mrs 85 Irving Av
46,"215 Lenox Ave, Providence, RI",Sleepy Hollow Antiques,2019-03-22,['cd1990/entry/1990_Page_86 (2)_49.png'],100.0,ANTIQUES-DEALERS AND RESTORERS,41.79584622929938,-71.42298759702813,100.0,215 LENOX AVE PROVIDENCE,Sleepy Hollow Antiques 215 Lenox Av
47,"490 Angell St, Providence, RI",Steckler Edw L,2019-03-22,['cd1990/entry/1990_Page_86 (2)_50.png'],100.0,ANTIQUES-DEALERS AND RESTORERS,41.83012764219859,-71.38799161617965,95.0,490 ANGELL ST PROVIDENCE,Steckler Edw L 490c Angell St Apt 307
48,"236 Wickenden St, Providence, RI",This N That Shoppe,2019-03-22,['cd1990/entry/1990_Page_86 (2)_51.png'],100.0,ANTIQUES-DEALERS AND RESTORERS,41.81952847598066,-71.39847240273575,100.0,236 WICKENDEN ST PROVIDENCE,This N That Shoppe 236 Wickenden St
49,"454 Wickenden St, Providence, RI",Wells Sanford Antiques,2019-03-22,['cd1990/entry/1990_Page_86 (2)_52.png'],100.0,ANTIQUES-DEALERS AND RESTORERS,41.82020345427821,-71.39415565037889,100.0,454 WICKENDEN ST PROVIDENCE,Wells Sanford Antiques 454 Wickenden St
50,"30 Clematis St, Providence, RI",White Natha,2019-03-22,['cd1990/entry/1990_Page_86 (2)_53.png'],100.0,ANTIQUES-DEALERS AND RESTORERS,41.83330854364842,-71.44602582527945,100.0,30 CLEMATIS ST PROVIDENCE,White Nathan 30 Clematis St
51,"409 Wickenden St, Providence, RI",Yesteryear Antiques,2019-03-22,['cd1990/entry/1990_Page_86 (2)_54.png'],100.0,ANTIQUES-DEALERS AND RESTORERS,41.819876114318916,-71.39495034664989,100.0,409 WICKENDEN ST PROVIDENCE,Yesteryear Antiques 409 Wickenden St
52,"169 Sumter St, Providence, RI",Zannini Robt,2019-03-22,['cd1990/entry/1990_Page_86 (2)_55.png'],100.0,ANTIQUES-DEALERS AND RESTORERS,41.795842088405976,-71.42055633825578,100.0,169 SUMTER ST PROVIDENCE,Zannini Robt 169 Sumter St
53,"1115 Charles St, Providence, RI",A Q Apartments,2019-03-22,['cd1990/entry/1990_Page_86 (3)_3.png'],100.0,APARTMENTS AND TOWN HOUSES,41.8699847217054,-71.42589277407687,100.0,1115 CHARLES ST PROVIDENCE,A Q Apartments 1115 Charles St (NP)
54,"301 Cranston St, Providence, RI",Aaron Briggs Manor,2019-03-22,['cd1990/entry/1990_Page_86 (3)_4.png'],100.0,APARTMENTS AND TOWN HOUSES,41.8129993417226,-71.42896695322311,100.0,301 CRANSTON ST PROVIDENCE,Aaron Briggs Manor 301 Cranston St
55,"94 Medway St, Providence, RI",Alberanne Apartments,2019-03-22,['cd1990/entry/1990_Page_86 (3)_5.png'],100.0,APARTMENTS AND TOWN HOUSES,41.82925793757229,-71.38931091801284,100.0,94 MEDWAY ST PROVIDENCE,Alberanne Apartments 94 Medway St
56,"88 Taft Ave, Providence, RI",Alden The,2019-03-22,['cd1990/entry/1990_Page_86 (3)_6.png'],100.0,APARTMENTS AND TOWN HOUSES,41.86599082438953,-71.44809560231053,100.0,88 TAFT AVE PROVIDENCE,Alden The 88 Taft Av
57,"17 Spicer St, Providence, RI",Alexander Apts,2019-03-22,['cd1990/entry/1990_Page_86 (3)_7.png'],100.0,APARTMENTS AND TOWN HOUSES,41.863879380647404,-71.443684759789,100.0,17 SPICER ST PROVIDENCE,Alexander Apts 17 Spicer St (NP)
58,"30 Huron St, Providence, RI",Allan Arms Apartments,2019-03-22,['cd1990/entry/1990_Page_86 (3)_8.png'],100.0,APARTMENTS AND TOWN HOUSES,41.829529183502935,-71.44112254394344,100.0,30 HURON ST PROVIDENCE,Allan Arms Apartments 30 Huron St
59,"9 Alumni Ave, Providence, RI",Alumni East Apartments,2019-03-22,['cd1990/entry/1990_Page_86 (3)_13.png'],100.0,APARTMENTS AND TOWN HOUSES,41.8348279871745,-71.4010551415137,100.0,9 ALUMNI AVE PROVIDENCE,Alumni East Apartments 9 Alumni Av
60,"77 Pitman St, Providence, RI",Ambassador Apartments The,2019-03-22,['cd1990/entry/1990_Page_86 (3)_14.png'],100.0,APARTMENTS AND TOWN HOUSES,41.82652100709935,-71.38993791631988,100.0,77 PITMAN ST PROVIDENCE,Ambassador Apartments The 77 Pitman St
61,"201 Angell St, Providence, RI",Angell Apartments,2019-03-22,['cd1990/entry/1990_Page_86 (3)_15.png'],100.0,APARTMENTS AND TOWN HOUSES,41.82814193579727,-71.39965406576216,100.0,201 ANGELL ST PROVIDENCE,Angell Apartments 201 Angell St
62,"650 Admiral St, Providence, RI",Apollo Apartments,2019-03-22,['cd1990/entry/1990_Page_86 (3)_16.png'],100.0,APARTMENTS AND TOWN HOUSES,41.84879332871997,-71.43802806353203,100.0,650 ADMIRAL ST PROVIDENCE,Apollo Apartments 650 Admiral St
63,"50 Jewett St, Providence, RI",Aster Arms Apartments,2019-03-22,['cd1990/entry/1990_Page_86 (3)_17.png'],100.0,APARTMENTS AND TOWN HOUSES,41.83189884094116,-71.41925463782175,100.0,50 JEWETT ST PROVIDENCE,Aster Arms Apartments 50 Jewett St
64,"257 Benefit St, Providence, RI",Athenaeum Row,2019-03-22,['cd1990/entry/1990_Page_86 (3)_18.png'],100.0,APARTMENTS AND TOWN HOUSES,41.825772114379824,-71.40657302258376,100.0,257 BENEFIT ST PROVIDENCE,Athenaeum Row 257 Benefit St
65,"209 Medway St, Providence, RI",Bannigan Court Apartments,2019-03-22,['cd1990/entry/1990_Page_86 (3)_21.png'],100.0,APARTMENTS AND TOWN HOUSES,41.82871366628955,-71.38518931366592,100.0,209 MEDWAY ST PROVIDENCE,Bannigan Court Apartments 209 Medway St
66,"213 Medway St, Providence, RI",Bannigan Court Apartments,2019-03-22,['cd1990/entry/1990_Page_86 (3)_22.png'],100.0,APARTMENTS AND TOWN HOUSES,41.82870810192384,-71.3851537735236,100.0,213 MEDWAY ST PROVIDENCE,Bannigan Court Apartments 213 Medway St
67,"217 Medway St, Providence, RI",Bannigan Court Apartments,2019-03-22,['cd1990/entry/1990_Page_86 (3)_23.png'],100.0,APARTMENTS AND TOWN HOUSES,41.828702537558115,-71.38511823338128,100.0,217 MEDWAY ST PROVIDENCE,Bannigan Court Apartments 217 Medway St
68,"221 Medway St, Providence, RI",Bannigan Court Apartments,2019-03-22,['cd1990/entry/1990_Page_86 (3)_24.png'],100.0,APARTMENTS AND TOWN HOUSES,41.8286969731924,-71.38508269323896,100.0,221 MEDWAY ST PROVIDENCE,Bannigan Court Apartments 221 Medway St
69,"34 Mawney St, Providence, RI",Barbara Apartments,2019-03-22,['cd1990/entry/1990_Page_86 (3)_25.png'],100.0,APARTMENTS AND TOWN HOUSES,41.8035730305917,-71.4244819630634,100.0,34 MAWNEY ST PROVIDENCE,Barbara Apartments 34 Mawney St
70,"1252 Douglas Ave, Providence, RI",Beckmor Apartments,2019-03-22,['cd1990/entry/1990_Page_86 (3)_26.png'],100.0,APARTMENTS AND TOWN HOUSES,41.859746515530844,-71.44788096574503,100.0,1252 DOUGLAS AVE PROVIDENCE,Beckmor Apartments 1252 Douglas Av (NP)
71,"140 Humboldt Ave, Providence, RI",Belair Realty Apartments,2019-03-22,['cd1990/entry/1990_Page_86 (3)_27.png'],100.0,APARTMENTS AND TOWN HOUSES,41.83291890400857,-71.3874319642943,100.0,140 HUMBOLDT AVE PROVIDENCE,Belair Realty Apartments 140 Humboldt Av
72,"40 Sessions St, Providence, RI",Bess Apartments,2019-03-22,['cd1990/entry/1990_Page_86 (3)_28.png'],100.0,APARTMENTS AND TOWN HOUSES,41.84120092511179,-71.39551989763243,100.0,40 SESSIONS ST PROVIDENCE,Bess Apartments 40 Sessions St
73,"381 Ives St, Providence, RI",Beverly Court Apartments,2019-03-22,['cd1990/entry/1990_Page_86 (3)_29.png'],100.0,APARTMENTS AND TOWN HOUSES,41.828386230197545,-71.39291205530685,100.0,381 IVES ST PROVIDENCE,Beverly Court Apartments 381 Ives St
74,"8 May St, Providence, RI",Birchwood Manor Apartments,2019-03-22,['cd1990/entry/1990_Page_86 (3)_30.png'],100.0,APARTMENTS AND TOWN HOUSES,41.86585251594678,-71.42415732748502,100.0,8 MAY ST PROVIDENCE,Birchwood Manor Apartments 8 May St (NP)
75,"35 Bissell St, Providence, RI",Bissell Court Apartments,2019-03-22,['cd1990/entry/1990_Page_86 (3)_31.png'],100.0,APARTMENTS AND TOWN HOUSES,41.777432500846466,-71.42087054465877,100.0,35 BISSELL ST PROVIDENCE,Bissell Court Apartments 35 Bissell St
76,"246 Gano St, Providence, RI",Bomes Edw Apartments,2019-03-22,['cd1990/entry/1990_Page_86 (3)_32.png'],100.0,APARTMENTS AND TOWN HOUSES,41.82785245094661,-71.39077601548027,100.0,246 GANO ST PROVIDENCE,Bomes Edw Apartments 246 Gano St
77,"50 Burns St, Providence, RI",Braeburn Apartments,2019-03-22,['cd1990/entry/1990_Page_86 (3)_33.png'],100.0,APARTMENTS AND TOWN HOUSES,41.854166295248966,-71.44233810392801,100.0,50 BURNS ST PROVIDENCE,Braeburn Apartments 50 Burns St
78,"25 Harwol Ct, Providence, RI",Braeburn Housing (Eastland Property Mgmt),2019-03-22,"['cd1990/entry/1990_Page_86 (3)_34.png', 'cd1990/entry/1990_Page_86 (3)_35.png']",100.0,APARTMENTS AND TOWN HOUSES,41.852166572465265,-71.43412306626679,100.0,25 HARWOL CT PROVIDENCE,Braeburn Housing (Eastland Property Mgmt) 25 Harwol Ct
79,"359 Carpenter St, Providence, RI",Bridgeham Manor Apartments,2019-03-22,"['cd1990/entry/1990_Page_86 (3)_40.png', 'cd1990/entry/1990_Page_86 (3)_41.png']",100.0,APARTMENTS AND TOWN HOUSES,41.817680785433936,-71.43111842951775,100.0,359 CARPENTER ST PROVIDENCE,Bridgeham Manor Apartments 359 Carpenter St
80,"1195 Westminster St, Providence, RI",Bridgham Block,2019-03-22,['cd1990/entry/1990_Page_86 (3)_42.png'],100.0,APARTMENTS AND TOWN HOUSES,41.816975522933475,-71.428655044799,100.0,1195 WESTMINSTER ST PROVIDENCE,Bridgham Block 1195 Westminster St
81,"93 Atwells Ave, Providence, RI",Broadway Apartments,2019-03-22,['cd1990/entry/1990_Page_86 (3)_43.png'],100.0,APARTMENTS AND TOWN HOUSES,41.82321918444663,-71.42090892529794,100.0,93 ATWELLS AVE PROVIDENCE,Broadway Apartments 93 Atwells Av
82,"70 Ridge St, Providence, RI",Broadway Plaza Apartments,2019-03-22,['cd1990/entry/1990_Page_86 (3)_45.png'],100.0,APARTMENTS AND TOWN HOUSES,41.82218146758794,-71.43474398756344,100.0,70 RIDGE ST PROVIDENCE,Broadway Plaza Apartments 70 Ridge St
83,"101 Medway St, Providence, RI",Bromley Realty Co,2019-03-22,['cd1990/entry/1990_Page_86 (3)_46.png'],100.0,APARTMENTS AND TOWN HOUSES,41.82920693112119,-71.38899851409883,100.0,101 MEDWAY ST PROVIDENCE,Bromley Realty Co 101 Medway St
84,"9 Winona St, Providence, RI",Brookside Apartments,2019-03-22,['cd1990/entry/1990_Page_86 (3)_49.png'],100.0,APARTMENTS AND TOWN HOUSES,41.85228297101033,-71.44581159890157,100.0,9 WINONA ST PROVIDENCE,Brookside Apartments 9 Winona St (NP)
85,"166 Waterman St, Providence, RI",Brown Association For Cooperative Housing,2019-03-22,"['cd1990/entry/1990_Page_86 (3)_50.png', 'cd1990/entry/1990_Page_86 (3)_51.png']",100.0,APARTMENTS AND TOWN HOUSES,41.82771377265393,-71.39389508678957,100.0,166 WATERMAN ST PROVIDENCE,Brown Association For Cooperative Housing 166 Waterman St
86,"315 Thayer St, Providence, RI",Brown University Apts,2019-03-22,['cd1990/entry/1990_Page_86 (3)_52.png'],100.0,APARTMENTS AND TOWN HOUSES,41.830755469504524,-71.40089791167048,100.0,315 THAYER ST PROVIDENCE,Brown University Apts 315 Thayer St
87,"57 Brownell St, Providence, RI",Brownell Apartments,2019-03-22,['cd1990/entry/1990_Page_86 (3)_53.png'],100.0,APARTMENTS AND TOWN HOUSES,41.83039950419405,-71.41869985235611,100.0,57 BROWNELL ST PROVIDENCE,Brownell Apartments 57 Brownell St
88,"230 Butler Ave, Providence, RI",Buena Vista Apartments,2019-03-22,['cd1990/entry/1990_Page_86 (3)_54.png'],100.0,APARTMENTS AND TOWN HOUSES,41.83103381032636,-71.38459152084994,100.0,230 BUTLER AVE PROVIDENCE,Buena Vista Apartments 230 Butler Av
89,"157 Manton Ave, Providence, RI",Burke Apartments,2019-03-22,['cd1990/entry/1990_Page_86 (3)_55.png'],100.0,APARTMENTS AND TOWN HOUSES,41.81975654639104,-71.44640681881278,100.0,157 MANTON AVE PROVIDENCE,Burke Apartments 157 Manton Av
90,"27 Gillen Ave, Providence, RI",Camelot Court,2019-03-22,['cd1990/entry/1990_Page_86 (3)_56.png'],100.0,APARTMENTS AND TOWN HOUSES,41.871842671802334,-71.42715878741677,100.0,27 GILLEN AVE PROVIDENCE,Camelot Court 27 Gillen Av (NP)
91,"1273 N Main St, Providence, RI",Cameo Apartments,2019-03-22,['cd1990/entry/1990_Page_86 (3)_57.png'],100.0,APARTMENTS AND TOWN HOUSES,41.85513691347347,-71.4000766348752,100.0,1273 NORTH MAIN ST PROVIDENCE,Cameo Apartments 1273 N Main St
92,"150 Camp St, Providence, RI",Camp Street Apartments,2019-03-22,['cd1990/entry/1990_Page_86 (3)_58.png'],100.0,APARTMENTS AND TOWN HOUSES,41.842260409185876,-71.40289718968555,100.0,150 CAMP ST PROVIDENCE,Camp Street Apartments 150 Camp St
93,"79 Ivan St, Providence, RI",Canterbury Village Condominiums,2019-03-22,"['cd1990/entry/1990_Page_86 (3)_59.png', 'cd1990/entry/1990_Page_86 (3)_60.png']",100.0,APARTMENTS AND TOWN HOUSES,41.866039323567605,-71.43243533690499,100.0,79 IVAN ST PROVIDENCE,Canterbury Village Condominiums 79 Ivan St (NP)
94,"258 Broad St, Providence, RI",Capito] Stationery Apartments,2019-03-22,['cd1990/entry/1990_Page_86 (3)_61.png'],100.0,APARTMENTS AND TOWN HOUSES,41.8157893329557,-71.42026215495464,100.0,258 BROAD ST PROVIDENCE,Capito] Stationery Apartments 258 Broad St
95,"1390 Westminster St, Providence, RI",Carols Apartments,2019-03-22,['cd1990/entry/1990_Page_86 (3)_62.png'],100.0,APARTMENTS AND TOWN HOUSES,41.81642274802889,-71.43242203098441,100.0,1390 WESTMINSTER ST PROVIDENCE,Carols Apartments 1390 Westminster St
96,"243 Smith St, Providence, RI",Carroll Joseph P Tower,2019-03-22,['cd1990/entry/1990_Page_86 (3)_63.png'],100.0,APARTMENTS AND TOWN HOUSES,41.83271554424956,-71.41916712997636,100.0,243 SMITH ST PROVIDENCE,Carroll Joseph P Tower 243 Smith St
97,"5 Cathedral Sq, Providence, RI",Cathedral Square Apartments,2019-03-22,['cd1990/entry/1990_Page_86 (3)_64.png'],100.0,APARTMENTS AND TOWN HOUSES,41.820869717596686,-71.41538436480192,100.0,5 CATHEDRAL SQ PROVIDENCE,Cathedral Square Apartments 5 Cathedral Sq
98,"4 Cathedral Sq, Providence, RI",Cathedral Square Apartments (Cathedral Associates),2019-03-22,"['cd1990/entry/1990_Page_86 (3)_65.png', 'cd1990/entry/1990_Page_86 (3)_66.png']",100.0,APARTMENTS AND TOWN HOUSES,41.82098258441591,-71.41543691199624,100.0,4 CATHEDRAL SQ PROVIDENCE,Cathedral Square Apartments (Cathedral Associates) 4 Cathedral Sq
99,"37 Berkshire St, Providence, RI",Chad Brown Houses,2019-03-22,['cd1990/entry/1990_Page_86 (3)_68.png'],100.0,APARTMENTS AND TOWN HOUSES,41.84250935513442,-71.42620706356395,100.0,37 BERKSHIRE ST PROVIDENCE,Chad Brown Houses 37 Berkshire St
100,"1190 Charles St, Providence, RI",Charles Apartments The,2019-03-22,"['cd1990/entry/1990_Page_86 (3)_69.png', 'cd1990/entry/1990_Page_86 (3)_70.png']",100.0,APARTMENTS AND TOWN HOUSES,41.87111635491842,-71.4272822747027,100.0,1190 CHARLES ST PROVIDENCE,Charles Apartments The 1190 Charles St (NP)
101,"460 Charles St, Providence, RI",Charles Place Apartments,2019-03-22,['cd1990/entry/1990_Page_86 (3)_71.png'],100.0,APARTMENTS AND TOWN HOUSES,41.84676894679784,-71.41939094363278,100.0,460 CHARLES ST PROVIDENCE,Charles Place Apartments 460 Charles St
102,"947 Charles St, Providence, RI",Charles Street Manor,2019-03-22,['cd1990/entry/1990_Page_86 (3)_72.png'],100.0,APARTMENTS AND TOWN HOUSES,41.863566940158,-71.42328719459755,100.0,947 CHARLES ST PROVIDENCE,Charles Street Manor 947 Charles St (NP)
103,"50 Randall St, Providence, RI",Charlesgate East Apartments,2019-03-22,['cd1990/entry/1990_Page_86 (3)_73.png'],100.0,APARTMENTS AND TOWN HOUSES,41.83710957774911,-71.41105376885564,100.0,50 RANDALL ST PROVIDENCE,Charlesgate East Apartments 50 Randall St
104,"20 Randall St, Providence, RI",Charlesgate South Apartments,2019-03-22,['cd1990/entry/1990_Page_86 (3)_74.png'],100.0,APARTMENTS AND TOWN HOUSES,41.836680329466745,-71.4115886561919,100.0,20 RANDALL ST PROVIDENCE,Charlesgate South Apartments 20 Randall St
105,"670 N Main St, Providence, RI",Charlesgate Square North,2019-03-22,['cd1990/entry/1990_Page_86 (3)_75.png'],100.0,APARTMENTS AND TOWN HOUSES,41.83840363403475,-71.40957935980217,100.0,670 NORTH MAIN ST PROVIDENCE,Charlesgate Square North 670 N Main St
106,"30 Cheshire St, Providence, RI",Cheshire Arms Inc,2019-03-22,['cd1990/entry/1990_Page_86 (3)_76.png'],100.0,APARTMENTS AND TOWN HOUSES,41.84639648256099,-71.42535535174268,100.0,30 CHESHIRE ST PROVIDENCE,Cheshire Arms Inc 30 Cheshire St
107,"31 Salmon St, Providence, RI",City Housing Authority Manton Heights,2019-03-22,"['cd1990/entry/1990_Page_86 (3)_77.png', 'cd1990/entry/1990_Page_86 (3)_78.png']",100.0,APARTMENTS AND TOWN HOUSES,41.8242594718068,-71.45470495812063,100.0,31 SALMON ST PROVIDENCE,City Housing Authority Manton Heights 31 Salmon St
108,"39 Cleveland St, Providence, RI",Cleveland Apartments,2019-03-22,['cd1990/entry/1990_Page_86 (3)_79.png'],100.0,APARTMENTS AND TOWN HOUSES,41.81605247223916,-71.45452902797301,100.0,39 CLEVELAND ST PROVIDENCE,Cleveland Apartments 39 Cleveland St (NP)
109,"127 Elmgrove Ave, Providence, RI",Codding Realty Apartments,2019-03-22,['cd1990/entry/1990_Page_86 (3)_80.png'],100.0,APARTMENTS AND TOWN HOUSES,41.83417852493595,-71.39075945209946,100.0,127 ELMGROVE AVE PROVIDENCE,Codding Realty Apartments 127 Elmgrove Av
110,"175 Benefit St, Providence, RI",Colonia] Apartments,2019-03-22,['cd1990/entry/1990_Page_86 (3)_81.png'],100.0,APARTMENTS AND TOWN HOUSES,41.828498272222284,-71.40810106174797,100.0,175 BENEFIT ST PROVIDENCE,Colonia] Apartments 175 Benefit St
111,"185 Benefit St, Providence, RI",Colonial Apartments,2019-03-22,['cd1990/entry/1990_Page_86 (3)_82.png'],100.0,APARTMENTS AND TOWN HOUSES,41.828117143086644,-71.40792249075434,100.0,185 BENEFIT ST PROVIDENCE,Colonial Apartments 185 Benefit St
112,"40 Melrose St, Providence, RI",Colony Court Apartments,2019-03-22,['cd1990/entry/1990_Page_86 (3)_83.png'],100.0,APARTMENTS AND TOWN HOUSES,41.80001783247836,-71.42370507779395,100.0,40 MELROSE ST PROVIDENCE,Colony Court Apartments 40 Melrose St
113,"1 Cadillac Dr, Providence, RI",Colony House (Housing Auth),2019-03-22,['cd1990/entry/1990_Page_86 (3)_84.png'],100.0,APARTMENTS AND TOWN HOUSES,41.789233004817646,-71.42128316581447,100.0,1 CADILLAC DR PROVIDENCE,Colony House (Housing Auth) 1 Cadillac Dr
114,"112 Murray St, Providence, RI",Condominiums,2019-03-22,"['cd1990/entry/1990_Page_86 (3)_85.png', 'cd1990/entry/1990_Page_86 (3)_86.png']",100.0,APARTMENTS AND TOWN HOUSES,41.80808504654319,-71.45770438354056,100.0,112 MURRAY ST PROVIDENCE,Condominiums 112 Murray St
115,"982 Branch Ave, Providence, RI",Cooney Edward Apartments,2019-03-22,['cd1990/entry/1990_Page_87 (1)_5.png'],100.0,APARTMENTS AND TOWN HOUSES,41.85513898420932,-71.43894345247519,100.0,982 BRANCH AVE PROVIDENCE,Cooney Edward Apartments 982 Branch Av
116,"655 S Main St, Providence, RI",Corliss Landing Condominium,2019-03-22,['cd1990/entry/1990_Page_87 (1)_6.png'],100.0,APARTMENTS AND TOWN HOUSES,41.816406962100515,-71.39973146361528,100.0,655 SOUTH MAIN ST PROVIDENCE,Corliss Landing Condominium 655 S Main St
117,"300 Smithfield Rd, Providence, RI",Country Lane Estates,2019-03-22,['cd1990/entry/1990_Page_87 (1)_7.png'],100.0,APARTMENTS AND TOWN HOUSES,41.858183926335855,-71.45903049651804,100.0,300 SMITHFIELD RD PROVIDENCE,Country Lane Estates 300 Smithfield Rd
118,"1760 Douglas Ave, Providence, RI",(NP) Cove At Wenscott,2019-03-22,['cd1990/entry/1990_Page_87 (1)_8.png'],100.0,APARTMENTS AND TOWN HOUSES,41.87106483767832,-71.46441450060004,100.0,1760 DOUGLAS AVE PROVIDENCE,(NP)\nCove At Wenscott 1760 Douglas Av (NP)
119,"80 Curtis St, Providence, RI",Curtis Arms Apartments (De Con Realty),2019-03-22,"['cd1990/entry/1990_Page_87 (1)_9.png', 'cd1990/entry/1990_Page_87 (1)_10.png']",100.0,APARTMENTS AND TOWN HOUSES,41.82224637853224,-71.45069289458011,100.0,80 CURTIS ST PROVIDENCE,Curtis Arms Apartments (De Con Realty) 80 Curtis St
120,"48 Marlborough Ave, Providence, RI",Declemente Francis Apartments,2019-03-22,"['cd1990/entry/1990_Page_87 (1)_11.png', 'cd1990/entry/1990_Page_87 (1)_12.png']",100.0,APARTMENTS AND TOWN HOUSES,41.805949343551184,-71.41860054699832,100.0,48 MARLBOROUGH AVE PROVIDENCE,Declemente Francis Apartments 48 Marlborough Av
121,"100 Broad St, Providence, RI",Dexter Manor I (City Hsg Auth),2019-03-22,"['cd1990/entry/1990_Page_87 (1)_13.png', 'cd1990/entry/1990_Page_87 (1)_14.png']",100.0,APARTMENTS AND TOWN HOUSES,41.81730966281647,-71.41690988039531,100.0,100 BROAD ST PROVIDENCE,Dexter Manor I (City Hsg Auth) 100 Broad St
122,"1155 Douglas Ave, Providence, RI",Douglas Manor (Ferland Corp),2019-03-22,"['cd1990/entry/1990_Page_87 (1)_15.png', 'cd1990/entry/1990_Page_87 (1)_16.png']",100.0,APARTMENTS AND TOWN HOUSES,41.857374736110565,-71.44409290953902,100.0,1155 DOUGLAS AVE PROVIDENCE,Douglas Manor (Ferland Corp) 1155 Douglas Av (NP)
123,"1655 Douglas Ave, Providence, RI",Douglas Terrace Apts,2019-03-22,['cd1990/entry/1990_Page_87 (1)_17.png'],100.0,APARTMENTS AND TOWN HOUSES,41.86954639796478,-71.46210279845752,100.0,1655 DOUGLAS AVE PROVIDENCE,Douglas Terrace Apts 1655 Douglas Av (NP)
124,"108 Doyle Ave, Providence, RI",Doyle Apartments,2019-03-22,['cd1990/entry/1990_Page_87 (1)_18.png'],100.0,APARTMENTS AND TOWN HOUSES,41.83886786900628,-71.40427233887296,100.0,108 DOYLE AVE PROVIDENCE,Doyle Apartments 108 Doyle Av
125,"83 Doyle Ave, Providence, RI",East Side Apartments,2019-03-22,['cd1990/entry/1990_Page_87 (1)_19.png'],100.0,APARTMENTS AND TOWN HOUSES,41.838622788464505,-71.40525803517254,100.0,83 DOYLE AVE PROVIDENCE,East Side Apartments 83 Doyle Av
126,"10 East St, Providence, RI",East Street Condominiums (Gold Assoc),2019-03-22,"['cd1990/entry/1990_Page_87 (1)_20.png', 'cd1990/entry/1990_Page_87 (1)_21.png']",100.0,APARTMENTS AND TOWN HOUSES,41.8221291582936,-71.39548563330837,100.0,10 EAST ST PROVIDENCE,East Street Condominiums (Gold Assoc) 10 East St
127,"158 Medway St, Providence, RI",Edgewood Arms,2019-03-22,['cd1990/entry/1990_Page_87 (1)_22.png'],100.0,APARTMENTS AND TOWN HOUSES,41.829129643994506,-71.38681077286937,100.0,158 MEDWAY ST PROVIDENCE,Edgewood Arms 158 Medway St
128,"8 Elmgrove Ave, Providence, RI",Eight Elmgrove Avenue Apartments,2019-03-22,"['cd1990/entry/1990_Page_87 (1)_23.png', 'cd1990/entry/1990_Page_87 (1)_24.png']",100.0,APARTMENTS AND TOWN HOUSES,41.83009730257955,-71.38948927919722,100.0,8 ELMGROVE AVE PROVIDENCE,Eight Elmgrove Avenue Apartments 8 Elmgrove Av
129,"211 Waterman St, Providence, RI",Eldorado Apartments,2019-03-22,['cd1990/entry/1990_Page_87 (1)_25.png'],100.0,APARTMENTS AND TOWN HOUSES,41.828292060587025,-71.38988679881096,100.0,211 WATERMAN ST PROVIDENCE,Eldorado Apartments 211 Waterman St
130,"152 Elmgrove Ave, Providence, RI",Elmgrove Court Apartments,2019-03-22,['cd1990/entry/1990_Page_87 (1)_26.png'],100.0,APARTMENTS AND TOWN HOUSES,41.83483950210238,-71.39112462575994,100.0,152 ELMGROVE AVE PROVIDENCE,Elmgrove Court Apartments 152 Elmgrove Av
131,"395 Angell St, Providence, RI",Embassy House,2019-03-22,['cd1990/entry/1990_Page_87 (1)_27.png'],100.0,APARTMENTS AND TOWN HOUSES,41.82935206230531,-71.39189326141906,100.0,395 ANGELL ST PROVIDENCE,Embassy House 395 Angell St
132,"461 Elmwood Ave, Providence, RI",Emery Apartments,2019-03-22,['cd1990/entry/1990_Page_87 (1)_28.png'],100.0,APARTMENTS AND TOWN HOUSES,41.79961238380784,-71.42661001303414,100.0,461 ELMWOOD AVE PROVIDENCE,Emery Apartments 461 Elmwood Av
133,"70 Wild St, Providence, RI",Etta Apartments,2019-03-22,['cd1990/entry/1990_Page_87 (1)_30.png'],100.0,APARTMENTS AND TOWN HOUSES,41.85586434891873,-71.43767645644047,100.0,70 WILD ST PROVIDENCE,Etta Apartments 70 Wild St
134,"111 Everett Ave, Providence, RI",Everett Apartments The,2019-03-22,['cd1990/entry/1990_Page_87 (1)_31.png'],100.0,APARTMENTS AND TOWN HOUSES,41.835905282985216,-71.39086169630168,100.0,111 EVERETT AVE PROVIDENCE,Everett Apartments The 111 Everett Av
135,"229 Camp St, Providence, RI",Evergreen Apartments,2019-03-22,['cd1990/entry/1990_Page_87 (1)_32.png'],100.0,APARTMENTS AND TOWN HOUSES,41.84524908428488,-71.40150968558143,100.0,229 CAMP ST PROVIDENCE,Evergreen Apartments 229 Camp St
136,"116 Evergreen St, Providence, RI",Evergreen Apartments (South Lawn Palms),2019-03-22,"['cd1990/entry/1990_Page_87 (1)_33.png', 'cd1990/entry/1990_Page_87 (1)_34.png']",100.0,APARTMENTS AND TOWN HOUSES,41.8448216841486,-71.40167699137335,100.0,116 EVERGREEN ST PROVIDENCE,Evergreen Apartments (South Lawn Palms) 116 Evergreen St
137,"89 Woodbine St, Providence, RI",Evergreen Apts The,2019-03-22,['cd1990/entry/1990_Page_87 (1)_35.png'],100.0,APARTMENTS AND TOWN HOUSES,41.8453267706866,-71.4013615052345,100.0,89 WOODBINE ST PROVIDENCE,Evergreen Apts The 89 Woodbine St
138,"200 Vincent Ave, Providence, RI",Ferland Apartments,2019-03-22,['cd1990/entry/1990_Page_87 (1)_38.png'],100.0,APARTMENTS AND TOWN HOUSES,41.867590243119174,-71.42595002455755,100.0,200 VINCENT AVE PROVIDENCE,Ferland Apartments 200 Vincent Av (NP)
139,"114 S Angell St, Providence, RI",Ferncroft The,2019-03-22,['cd1990/entry/1990_Page_87 (1)_39.png'],100.0,APARTMENTS AND TOWN HOUSES,41.829410571153275,-71.38431757465024,100.0,114 SOUTH ANGELL ST PROVIDENCE,Ferncroft The 114 S Angell St
140,"50 Common St, Providence, RI",Fifty Common Street Apartments,2019-03-22,"['cd1990/entry/1990_Page_87 (1)_40.png', 'cd1990/entry/1990_Page_87 (1)_41.png']",100.0,APARTMENTS AND TOWN HOUSES,41.833048208882055,-71.41805008270703,100.0,50 COMMON ST PROVIDENCE,Fifty Common Street Apartments 50 Common St
141,"265 Atwells Ave, Providence, RI",Forum Apartments,2019-03-22,['cd1990/entry/1990_Page_87 (1)_42.png'],100.0,APARTMENTS AND TOWN HOUSES,41.823662048803854,-71.4267952295481,100.0,265 ATWELLS AVE PROVIDENCE,Forum Apartments 265 Atwells Av
142,"575 Wickenden St, Providence, RI",Fox Point Manor Apartments,2019-03-22,"['cd1990/entry/1990_Page_87 (1)_43.png', 'cd1990/entry/1990_Page_87 (1)_44.png']",100.0,APARTMENTS AND TOWN HOUSES,41.82022019004763,-71.39177474711764,100.0,575 WICKENDEN ST PROVIDENCE,Fox Point Manor Apartments 575 Wickenden St
143,"63 Elmwood Ave, Providence, RI",Franco Joseph Apts,2019-03-22,['cd1990/entry/1990_Page_87 (1)_45.png'],100.0,APARTMENTS AND TOWN HOUSES,41.81104490579214,-71.42335414386915,100.0,63 ELMWOOD AVE PROVIDENCE,Franco Joseph Apts 63 Elmwood Av
144,"122 Camp St, Providence, RI",Frazier House,2019-03-22,['cd1990/entry/1990_Page_87 (1)_46.png'],100.0,APARTMENTS AND TOWN HOUSES,41.84129784402365,-71.40341694756906,100.0,122 CAMP ST PROVIDENCE,Frazier House 122 Camp St
145,"20 Sunset Ave, Providence, RI",Gables Condominiums The,2019-03-22,['cd1990/entry/1990_Page_87 (1)_48.png'],100.0,APARTMENTS AND TOWN HOUSES,41.81471320191355,-71.46477181625744,100.0,20 SUNSET AVE PROVIDENCE,Gables Condominiums The 20 Sunset Av
146,"295 Admiral St, Providence, RI",Gianfrancesco Apartments,2019-03-22,['cd1990/entry/1990_Page_87 (1)_49.png'],100.0,APARTMENTS AND TOWN HOUSES,41.84538850785354,-71.42585397426288,100.0,295 ADMIRAL ST PROVIDENCE,Gianfrancesco Apartments 295 Admiral St
147,"198 Governor St, Providence, RI",Governor House The,2019-03-22,['cd1990/entry/1990_Page_87 (1)_50.png'],100.0,APARTMENTS AND TOWN HOUSES,41.827721326021845,-71.39398285193968,100.0,198 GOVERNOR ST PROVIDENCE,Governor House The 198 Governor St
148,"2 Cathedral Sq, Providence, RI",Grace Church Apartments,2019-03-22,['cd1990/entry/1990_Page_87 (1)_51.png'],100.0,APARTMENTS AND TOWN HOUSES,41.82101465056915,-71.41539000379493,100.0,2 CATHEDRAL SQ PROVIDENCE,Grace Church Apartments 2 Cathedral Sq
149,"42 Victor St, Providence, RI",Grand View Apartments,2019-03-22,['cd1990/entry/1990_Page_87 (1)_53.png'],100.0,APARTMENTS AND TOWN HOUSES,41.83701113943465,-71.41733988636322,100.0,42 VICTOR ST PROVIDENCE,Grand View Apartments 42 Victor St
150,"1 County St, Providence, RI",Grandview Apartments,2019-03-22,['cd1990/entry/1990_Page_87 (1)_54.png'],100.0,APARTMENTS AND TOWN HOUSES,41.869228081400806,-71.43284785495914,100.0,1 COUNTY ST PROVIDENCE,Grandview Apartments 1 County St (NP)
151,"257 Gano St, Providence, RI",Greenberg Irwin R,2019-03-22,['cd1990/entry/1990_Page_87 (1)_55.png'],100.0,APARTMENTS AND TOWN HOUSES,41.828209939916746,-71.3906768980024,100.0,257 GANO ST PROVIDENCE,Greenberg Irwin R 257 Gano St
152,"78 Medway St, Providence, RI",Greenberg Melvi,2019-03-22,['cd1990/entry/1990_Page_87 (1)_56.png'],100.0,APARTMENTS AND TOWN HOUSES,41.82913916826976,-71.38990434034937,100.0,78 MEDWAY ST PROVIDENCE,Greenberg Melvin 78 Medway St
153,"226 Gano St, Providence, RI",Greenberg Richd Apartments,2019-03-22,['cd1990/entry/1990_Page_87 (1)_57.png'],100.0,APARTMENTS AND TOWN HOUSES,41.82704416936962,-71.39066811620914,100.0,226 GANO ST PROVIDENCE,Greenberg Richd Apartments 226 Gano St
154,"20 Hagan St, Providence, RI",Hagan Manor,2019-03-22,['cd1990/entry/1990_Page_87 (1)_58.png'],100.0,APARTMENTS AND TOWN HOUSES,41.856930380523146,-71.42211691927126,100.0,20 HAGAN ST PROVIDENCE,Hagan Manor 20 Hagan St
155,"140 Prospect St, Providence, RI",Halsey Estate,2019-03-22,['cd1990/entry/1990_Page_87 (1)_59.png'],100.0,APARTMENTS AND TOWN HOUSES,41.83336145269312,-71.40638178370165,100.0,140 PROSPECT ST PROVIDENCE,Halsey Estate 140 Prospect St
156,"46 Hawthorne St, Providence, RI",Hawthorne Adult Condominiums,2019-03-22,"['cd1990/entry/1990_Page_87 (1)_61.png', 'cd1990/entry/1990_Page_87 (1)_62.png']",100.0,APARTMENTS AND TOWN HOUSES,41.8634031559433,-71.46001817387507,100.0,46 HAWTHORNE ST PROVIDENCE,Hawthorne Adult Condominiums 46 Hawthorne St (NP)
157,"60 Hawthorne Pl, Providence, RI",Hawthorne Place Condos (Damian Dev Corp),2019-03-22,"['cd1990/entry/1990_Page_87 (1)_63.png', 'cd1990/entry/1990_Page_87 (1)_64.png']",100.0,APARTMENTS AND TOWN HOUSES,41.86640885453973,-71.46035473890407,100.0,60 HAWTHORNE PL PROVIDENCE,Hawthorne Place Condos (Damian Dev Corp) 60 Hawthorne Pl (NP)
158,"489 Elmwood Ave, Providence, RI",Henrv Apartments,2019-03-22,['cd1990/entry/1990_Page_87 (1)_65.png'],100.0,APARTMENTS AND TOWN HOUSES,41.79879326857092,-71.4264180508441,100.0,489 ELMWOOD AVE PROVIDENCE,Henrv Apartments 489 Elmwood Av
159,"101 Highland Ave, Providence, RI",Highiand-Court Retirement Home,2019-03-22,"['cd1990/entry/1990_Page_87 (1)_66.png', 'cd1990/entry/1990_Page_87 (1)_67.png']",100.0,APARTMENTS AND TOWN HOUSES,41.84992694311513,-71.40072550019228,100.0,101 HIGHLAND AVE PROVIDENCE,Highiand-Court Retirement Home 101 Highland Av
160,"40 Leander St, Providence, RI",Hillcrest Village Apartments,2019-03-22,['cd1990/entry/1990_Page_87 (1)_69.png'],100.0,APARTMENTS AND TOWN HOUSES,41.829482506520726,-71.46025067638992,100.0,40 LEANDER ST PROVIDENCE,Hillcrest Village Apartments 40 Leander St
161,"4 Swan St, Providence, RI",Hills Condominiums,2019-03-22,['cd1990/entry/1990_Page_87 (1)_70.png'],100.0,APARTMENTS AND TOWN HOUSES,41.80555514407478,-71.40257396624071,100.0,4 SWAN ST PROVIDENCE,Hills Condominiums 4 Swan St (NP)
162,"170 Benedict St, Providence, RI",Huntington Towers,2019-03-22,['cd1990/entry/1990_Page_87 (1)_75.png'],100.0,APARTMENTS AND TOWN HOUSES,41.80616690931564,-71.43905944018677,100.0,170 BENEDICT ST PROVIDENCE,Huntington Towers 170 Benedict St
163,"20 Hurdis St, Providence, RI",Hurdis Street Apartments,2019-03-22,['cd1990/entry/1990_Page_87 (1)_76.png'],100.0,APARTMENTS AND TOWN HOUSES,41.8629153997966,-71.4241539264252,100.0,20 HURDIS ST PROVIDENCE,Hurdis Street Apartments 20 Hurdis St (NP)
164,"520 Smithfield Rd, Providence, RI",International Apartments (National Dev Group),2019-03-22,"['cd1990/entry/1990_Page_87 (1)_77.png', 'cd1990/entry/1990_Page_87 (1)_78.png']",100.0,APARTMENTS AND TOWN HOUSES,41.86246276486439,-71.46418698383732,100.0,520 SMITHFIELD RD PROVIDENCE,International Apartments (National Dev Group) 520 Smithfield Rd (NP)
165,"131 Irving Ave, Providence, RI",Irving Av Apartments,2019-03-22,['cd1990/entry/1990_Page_87 (1)_79.png'],100.0,APARTMENTS AND TOWN HOUSES,41.83349737568466,-71.38733946629516,100.0,131 IRVING AVE PROVIDENCE,Irving Av Apartments 131 Irving Av
166,"4 2nd St, Providence, RI",Janemore Apartments,2019-03-22,['cd1990/entry/1990_Page_87 (1)_81.png'],100.0,APARTMENTS AND TOWN HOUSES,41.850625804206814,-71.40256823750666,85.0,4 2ND ST PROVIDENCE,Janemore Apartments 4 2d St (NP)
167,"336 Killingly St, Providence, RI",Killingly Manor Condominiums,2019-03-22,"['cd1990/entry/1990_Page_87 (1)_82.png', 'cd1990/entry/1990_Page_87 (1)_83.png']",100.0,APARTMENTS AND TOWN HOUSES,41.81880894899016,-71.46838534518703,100.0,336 KILLINGLY ST PROVIDENCE,Killingly Manor Condominiums 336 Killingly St
168,"380 Lloyd Ave, Providence, RI",Kilmartin John D Plaza 160 Benedict St Lafayette Condominiums,2019-03-22,"['cd1990/entry/1990_Page_87 (1)_84.png', 'cd1990/entry/1990_Page_87 (1)_85.png']",100.0,APARTMENTS AND TOWN HOUSES,41.83395802875489,-71.39228033202697,100.0,380 LLOYD AVE PROVIDENCE,Kilmartin John D Plaza 160 Benedict St Lafayette Condominiums 380 Lloyd Av
169,"190 Chenango Ave, Providence, RI",Ledgemont Manor Apartment Complex,2019-03-22,"['cd1990/entry/1990_Page_87 (2)_3.png', 'cd1990/entry/1990_Page_87 (2)_4.png']",100.0,APARTMENTS AND TUWN BUUDED CONTD,41.86344553453758,-71.44835670904092,100.0,190 CHENANGO AVE PROVIDENCE,Ledgemont Manor Apartment Complex 190 Chenango Av (NP)
170,"210 Lexington Ave, Providence, RI",Lexington Court Condominiums,2019-03-22,"['cd1990/entry/1990_Page_87 (2)_5.png', 'cd1990/entry/1990_Page_87 (2)_6.png']",100.0,APARTMENTS AND TUWN BUUDED CONTD,41.86637960130151,-71.44715414473694,100.0,210 LEXINGTON AVE PROVIDENCE,Lexington Court Condominiums 210 Lexingto
171,"169 Waterman St, Providence, RI",Linden Associates Apartments,2019-03-22,"['cd1990/entry/1990_Page_87 (2)_7.png', 'cd1990/entry/1990_Page_87 (2)_8.png']",100.0,APARTMENTS AND TUWN BUUDED CONTD,41.82765798993316,-71.39355028437936,100.0,169 WATERMAN ST PROVIDENCE,Linden Associates Apartments 169 Waterman St
172,"1624 Mineral Spring Ave, Providence, RI",Linmor Apartments,2019-03-22,"['cd1990/entry/1990_Page_87 (2)_9.png', 'cd1990/entry/1990_Page_87 (2)_10.png']",100.0,APARTMENTS AND TUWN BUUDED CONTD,41.86392172133488,-71.45012423812595,100.0,1624 MINERAL SPRING AV PROVIDENCE,Linmor Apartments 1624 Mineral Spring Av (NP)
173,"126 Linwood Ave, Providence, RI",Linwood Apartments,2019-03-22,['cd1990/entry/1990_Page_87 (2)_11.png'],100.0,APARTMENTS AND TUWN BUUDED CONTD,41.80695192118032,-71.43524544822806,100.0,126 LINWOOD AVE PROVIDENCE,Linwood Apartments 126 Linwood Av
174,"102 Linwood Ave, Providence, RI",Linwood Court Apartments,2019-03-22,['cd1990/entry/1990_Page_87 (2)_12.png'],100.0,APARTMENTS AND TUWN BUUDED CONTD,41.807337618549504,-71.43610893779059,100.0,102 LINWOOD AVE PROVIDENCE,Linwood Court Apartments 102 Linwood Av
175,"126 Taber Ave, Providence, RI",Lloyd Manor Annex,2019-03-22,['cd1990/entry/1990_Page_87 (2)_14.png'],100.0,APARTMENTS AND TUWN BUUDED CONTD,41.833426838506185,-71.39236868184284,100.0,126 TABER AVE PROVIDENCE,Lloyd Manor Annex 126 Taber Av
176,"375 Lloyd Ave, Providence, RI",Lloyd Manor Apartments,2019-03-22,['cd1990/entry/1990_Page_87 (2)_15.png'],100.0,APARTMENTS AND TUWN BUUDED CONTD,41.833814902900535,-71.3924435261028,100.0,375 LLOYD AVE PROVIDENCE,Lloyd Manor Apartments 375 Lloyd Av
177,"50 Prairie Ave, Providence, RI",Lockwood Plaza Apartments,2019-03-22,['cd1990/entry/1990_Page_87 (2)_16.png'],100.0,APARTMENTS AND TUWN BUUDED CONTD,41.813255558786246,-71.41512260625083,100.0,50 PRAIRIE AVE PROVIDENCE,Lockwood Plaza Apartments 50 Prairie Av
178,"242 Broad St, Providence, RI",Lola Apartments,2019-03-22,['cd1990/entry/1990_Page_87 (2)_17.png'],100.0,APARTMENTS AND TUWN BUUDED CONTD,41.81611054093659,-71.41963199430718,100.0,242 BROAD ST PROVIDENCE,Lola Apartments 242 Broad St
179,"85 Governor St, Providence, RI",Londergan Cecelia M Mrs,2019-03-22,['cd1990/entry/1990_Page_87 (2)_18.png'],100.0,APARTMENTS AND TUWN BUUDED CONTD,41.82312112495445,-71.39401999273849,100.0,85 GOVERNOR ST PROVIDENCE,Londergan Cecelia M Mrs 85 Governor St
180,HARDCODE,Lowell Realty Corp,2019-03-22,['cd1990/entry/1990_Page_87 (2)_21.png'],100.0,APARTMENTS AND TUWN BUUDED CONTD,41.824645,-71.409938,100.0,1 TURKS HEAD PL PROVIDENCE,Lowell Realty Corp 1 Turks Head Pl Rm 304
181,"121 Tobey St, Providence, RI",Luxury Condominiums,2019-03-22,['cd1990/entry/1990_Page_87 (2)_22.png'],100.0,APARTMENTS AND TUWN BUUDED CONTD,41.81716895793961,-71.43492465122927,100.0,121 TOBEY ST PROVIDENCE,Luxury Condominiums 121 Tobey St
182,"242 Smithfield Rd, Providence, RI",Madison House,2019-03-22,['cd1990/entry/1990_Page_87 (2)_23.png'],100.0,APARTMENTS AND TUWN BUUDED CONTD,41.85818391432244,-71.45674240667826,100.0,242 SMITHFIELD RD PROVIDENCE,Madison House 242 Smithfield Rd (NP)
183,"100 Waterman St, Providence, RI",Mae Apartments,2019-03-22,['cd1990/entry/1990_Page_87 (2)_24.png'],100.0,APARTMENTS AND TUWN BUUDED CONTD,41.82732571588802,-71.40098675771185,100.0,100 WATERMAN ST PROVIDENCE,Mae Apartments 100 Waterman St
184,"96 E Manning St, Providence, RI",Manning Gardens Apts,2019-03-22,['cd1990/entry/1990_Page_87 (2)_25.png'],100.0,APARTMENTS AND TUWN BUUDED CONTD,41.8273539764705,-71.38977092396239,100.0,96 EAST MANNING ST PROVIDENCE,Manning Gardens Apts 96 E Manning St
185,"80 Plenty St, Providence, RI",Manor Apartments The,2019-03-22,['cd1990/entry/1990_Page_87 (2)_26.png'],100.0,APARTMENTS AND TUWN BUUDED CONTD,41.80718050768188,-71.42212223044157,100.0,80 PLENTY ST PROVIDENCE,Manor Apartments The 80 Plenty St
186,"25 Mcguire Rd, Providence, RI",Maple Gardens (Housing Management Co),2019-03-22,"['cd1990/entry/1990_Page_87 (2)_27.png', 'cd1990/entry/1990_Page_87 (2)_28.png']",100.0,APARTMENTS AND TUWN BUUDED CONTD,41.86114365356997,-71.47113331497945,89.0,25 MCGUIRE RD PROVIDENCE,Maple Gardens (Housing Management Co) 25 Mc Guire Rd (NP)
187,"129 Thayer St, Providence, RI",Margaret Mary Apartments,2019-03-22,['cd1990/entry/1990_Page_87 (2)_29.png'],100.0,APARTMENTS AND TUWN BUUDED CONTD,41.82486850290397,-71.4001740473965,100.0,129 THAYER ST PROVIDENCE,Margaret Mary Apartments 129 Thayer St
188,"945 Charles St, Providence, RI",Marieville Manor,2019-03-22,['cd1990/entry/1990_Page_87 (2)_30.png'],100.0,APARTMENTS AND TUWN BUUDED CONTD,41.86350348843927,-71.42326290285044,100.0,945 CHARLES ST PROVIDENCE,Marieville Manor 945 Charles St (NP)
189,"1688 Westminster St, Providence, RI",Marvin Gardens II,2019-03-22,['cd1990/entry/1990_Page_87 (2)_31.png'],100.0,APARTMENTS AND TUWN BUUDED CONTD,41.81579607504648,-71.4375087171359,100.0,1688 WESTMINSTER ST PROVIDENCE,Marvin Gardens II 1688 Westminster St
190,"21 Marvin St, Providence, RI",Marvin Gardens Apartments,2019-03-22,['cd1990/entry/1990_Page_87 (2)_32.png'],100.0,APARTMENTS AND TUWN BUUDED CONTD,41.81416597744398,-71.43703465219355,100.0,21 MARVIN ST PROVIDENCE,Marvin Gardens Apartments 21 Marvin St
191,"576 Cranston St, Providence, RI",Medina Village Apartments,2019-03-22,['cd1990/entry/1990_Page_87 (2)_33.png'],100.0,APARTMENTS AND TUWN BUUDED CONTD,41.80788850940541,-71.43484753995287,100.0,576 CRANSTON ST PROVIDENCE,Medina Village Apartments 576 Cranston St
192,"107 Medway St, Providence, RI",Medway Manor Apartments,2019-03-22,['cd1990/entry/1990_Page_87 (2)_34.png'],100.0,APARTMENTS AND TUWN BUUDED CONTD,41.8292528192608,-71.388769237287,100.0,107 MEDWAY ST PROVIDENCE,Medway Manor Apartments 107 Medway St
193,"229 Medway St, Providence, RI",Medway Place Retirement,2019-03-22,['cd1990/entry/1990_Page_87 (2)_35.png'],100.0,APARTMENTS AND TUWN BUUDED CONTD,41.82868584446097,-71.38501161295433,100.0,229 MEDWAY ST PROVIDENCE,Medway Place Retirement 229 Medway St
194,"555 Veazie St, Providence, RI",Metcalf Court,2019-03-22,['cd1990/entry/1990_Page_87 (2)_36.png'],100.0,APARTMENTS AND TUWN BUUDED CONTD,41.85774041539495,-71.43280659814182,100.0,555 VEAZIE ST PROVIDENCE,Metcalf Court 555 Veazie St
195,"20 Oak St, Providence, RI",Mill Pond Condominiums,2019-03-22,['cd1990/entry/1990_Page_87 (2)_37.png'],100.0,APARTMENTS AND TUWN BUUDED CONTD,41.81531333630004,-71.43327763117786,100.0,20 OAK ST PROVIDENCE,Mill Pond Condominiums 20 Oak St (NP)
196,"125 Waterman St, Providence, RI",Minden Apartments,2019-03-22,['cd1990/entry/1990_Page_87 (2)_38.png'],100.0,APARTMENTS AND TUWN BUUDED CONTD,41.82744596277163,-71.39882081630257,100.0,125 WATERMAN ST PROVIDENCE,Minden Apartments 125 Waterman St
197,"1905 Mineral Spring Ave, Providence, RI",Mineral Springs Gardens (N Dartmouth Properties),2019-03-22,"['cd1990/entry/1990_Page_87 (2)_39.png', 'cd1990/entry/1990_Page_87 (2)_40.png']",100.0,APARTMENTS AND TUWN BUUDED CONTD,41.86073151858714,-71.46643035737345,100.0,1905 MINERAL SPRING AV PROVIDENCE,Mineral Springs Gardens (N Dartmouth Properties) 1905 Mineral Spring Av (NP)
198,"189 Smith St, Providence, RI",Mohican Apartments,2019-03-22,['cd1990/entry/1990_Page_87 (2)_41.png'],100.0,APARTMENTS AND TUWN BUUDED CONTD,41.83221282141764,-71.4177838446498,100.0,189 SMITH ST PROVIDENCE,Mohican Apartments 189 Smith St
199,"34 Benefit St, Providence, RI",Morris House The,2019-03-22,['cd1990/entry/1990_Page_87 (2)_42.png'],100.0,APARTMENTS AND TUWN BUUDED CONTD,41.833066666573195,-71.40985058454189,100.0,34 BENEFIT ST PROVIDENCE,Morris House The 34 Benefit St
200,"73 Charles St, Providence, RI",Moshassuck Square Apartments,2019-03-22,['cd1990/entry/1990_Page_87 (2)_43.png'],100.0,APARTMENTS AND TUWN BUUDED CONTD,41.83436175676662,-71.41129960225214,100.0,73 CHARLES ST PROVIDENCE,Moshassuck Square Apartments 73 Charles St
201,"400 N Main St, Providence, RI",Moshassuck Square Apartments,2019-03-22,"['cd1990/entry/1990_Page_87 (2)_44.png', 'cd1990/entry/1990_Page_87 (2)_45.png']",100.0,APARTMENTS AND TUWN BUUDED CONTD,41.83324274703275,-71.4107027884899,100.0,400 NORTH MAIN ST PROVIDENCE,Moshassuck Square Apartments 400 N Main St
202,"155 Elmwood Ave, Providence, RI",Neri Mario Apartments,2019-03-22,['cd1990/entry/1990_Page_87 (2)_46.png'],100.0,APARTMENTS AND TUWN BUUDED CONTD,41.80877751038352,-71.42469387448399,100.0,155 ELMWOOD AVE PROVIDENCE,Neri Mario Apartments 155 Elmwood Av
203,"36 Parkis Ave, Providence, RI",Neri Mario Apartments,2019-03-22,['cd1990/entry/1990_Page_87 (2)_47.png'],100.0,APARTMENTS AND TUWN BUUDED CONTD,41.809103326119775,-71.42217013878656,100.0,36 PARKIS AVE PROVIDENCE,Neri Mario Apartments 36 Parkis Av
204,"104 Beacon Ave, Providence, RI",New City Apartments,2019-03-22,['cd1990/entry/1990_Page_87 (2)_48.png'],100.0,APARTMENTS AND TUWN BUUDED CONTD,41.813727961167885,-71.41424518263334,100.0,104 BEACON AVE PROVIDENCE,New City Apartments 104 Beacon Av
205,"125 Prospect St, Providence, RI",Nightingale Condos,2019-03-22,['cd1990/entry/1990_Page_87 (2)_49.png'],100.0,APARTMENTS AND TUWN BUUDED CONTD,41.83272981128267,-71.40617843652007,100.0,125 PROSPECT ST PROVIDENCE,Nightingale Condos 125 Prospect St
206,"1560 Douglas Ave, Providence, RI",North Hills Condominiums,2019-03-22,"['cd1990/entry/1990_Page_87 (2)_50.png', 'cd1990/entry/1990_Page_87 (2)_51.png']",100.0,APARTMENTS AND TUWN BUUDED CONTD,41.8674151616322,-71.45936109129063,100.0,1560 DOUGLAS AVE PROVIDENCE,North Hills Condominiums 1560 Douglas Av (NP)
207,"62 Hurdis St, Providence, RI",Northfield Manor Apartments,2019-03-22,"['cd1990/entry/1990_Page_87 (2)_52.png', 'cd1990/entry/1990_Page_87 (2)_53.png']",100.0,APARTMENTS AND TUWN BUUDED CONTD,41.86266849041666,-71.42540258243233,100.0,62 HURDIS ST PROVIDENCE,Northfield Manor Apartments 62 Hurdis St (NP)
208,"1801 Mineral Spring Ave, Providence, RI",Northview Condominiums,2019-03-22,"['cd1990/entry/1990_Page_87 (2)_54.png', 'cd1990/entry/1990_Page_87 (2)_55.png']",100.0,APARTMENTS AND TUWN BUUDED CONTD,41.86253597686782,-71.45658983798864,100.0,1801 MINERAL SPRING AV PROVIDENCE,Northview Condominiums 1801 Mineral Spring Av (NP)
209,"567 Smithfield Rd, Providence, RI",Oakwood Gardens II,2019-03-22,['cd1990/entry/1990_Page_87 (2)_56.png'],100.0,APARTMENTS AND TUWN BUUDED CONTD,41.86406416339913,-71.46522598453281,100.0,567 SMITHFIELD RD PROVIDENCE,Oakwood Gardens II 567 Smithfield Rd (NP)
210,"214 Olney St, Providence, RI",Olney Manor Apartments,2019-03-22,['cd1990/entry/1990_Page_87 (2)_57.png'],100.0,APARTMENTS AND TUWN BUUDED CONTD,41.83576645335677,-71.40251946076098,100.0,214 OLNEY ST PROVIDENCE,Olney Manor Apartments 214 Olney St
211,"1 Valley St, Providence, RI",Olney Towers,2019-03-22,['cd1990/entry/1990_Page_87 (2)_58.png'],100.0,APARTMENTS AND TUWN BUUDED CONTD,41.81686256998695,-71.44092583061577,100.0,1 VALLEY ST PROVIDENCE,Olney Towers 1 Valley St
212,"200 Gordon Ave, Providence, RI",Oxford Place Apts,2019-03-22,['cd1990/entry/1990_Page_87 (2)_59.png'],100.0,APARTMENTS AND TUWN BUUDED CONTD,41.80060234720564,-71.41433508000533,100.0,200 GORDON AVE PROVIDENCE,Oxford Place Apts 200 Gordon Av
213,"238 Saratoga St, Providence, RI",P D L Associates Apartments,2019-03-22,['cd1990/entry/1990_Page_87 (2)_60.png'],100.0,APARTMENTS AND TUWN BUUDED CONTD,41.80444530105107,-71.41756406521763,100.0,238 SARATOGA ST PROVIDENCE,P D L Associates Apartments 238 Saratoga St
214,"20 Blackstone Blvd, Providence, RI",Paragon Apartments The (Bilodeau Property Mgmt),2019-03-22,"['cd1990/entry/1990_Page_87 (2)_61.png', 'cd1990/entry/1990_Page_87 (2)_62.png']",100.0,APARTMENTS AND TUWN BUUDED CONTD,41.83347891185504,-71.38404312490596,96.5,20 BLACKSTONE BLVD PROVIDENCE,Paragon Apartments The (Bilodeau Property Mgmt) 20 Blackstone Bivd
215,"25 Tobey St, Providence, RI",Parenti Flaminio Father Villa,2019-03-22,['cd1990/entry/1990_Page_87 (2)_63.png'],100.0,APARTMENTS AND TUWN BUUDED CONTD,41.81964388778476,-71.43558716435764,100.0,25 TOBEY ST PROVIDENCE,Parenti Flaminio Father Villa 25 Tobey St
216,"369 Montgomery Ave, Providence, RI",Park West Apartments,2019-03-22,['cd1990/entry/1990_Page_87 (2)_65.png'],100.0,APARTMENTS AND TUWN BUUDED CONTD,41.785931155336364,-71.40355188302868,100.0,369 MONTGOMERY AVE PROVIDENCE,Park West Apartments 369 Montgomery Av
217,"23 Verndale Ave, Providence, RI",Parkay Apartments The,2019-03-22,['cd1990/entry/1990_Page_87 (2)_66.png'],100.0,APARTMENTS AND TUWN BUUDED CONTD,41.79135017343275,-71.40740570870263,100.0,23 VERNDALE AVE PROVIDENCE,Parkay Apartments The 23 Verndale Av
218,"25 Ontario St, Providence, RI",Parker Apts,2019-03-22,['cd1990/entry/1990_Page_87 (2)_67.png'],100.0,APARTMENTS AND TUWN BUUDED CONTD,41.80018800885754,-71.41855621626758,100.0,25 ONTARIO ST PROVIDENCE,Parker Apts 25 Ontario St
219,"9 Parkis Ave, Providence, RI",Parkis Place,2019-03-22,['cd1990/entry/1990_Page_87 (2)_68.png'],100.0,APARTMENTS AND TUWN BUUDED CONTD,41.80921776315104,-71.42123031597794,100.0,9 PARKIS AVE PROVIDENCE,Parkis Place 9 Parkis Av
220,"420 Woodward Rd, Providence, RI",Parkview Apartments II,2019-03-22,"['cd1990/entry/1990_Page_87 (2)_69.png', 'cd1990/entry/1990_Page_87 (2)_70.png']",100.0,APARTMENTS AND TUWN BUUDED CONTD,41.86206876619678,-71.43535654408814,100.0,420 WOODWARD RD PROVIDENCE,Parkview Apartments II 420 Woodward Rd (NP)
221,"444 Woodward Rd, Providence, RI",Parkview Condominiums,2019-03-22,"['cd1990/entry/1990_Page_87 (2)_71.png', 'cd1990/entry/1990_Page_87 (2)_72.png']",100.0,APARTMENTS AND TUWN BUUDED CONTD,41.86271805702247,-71.436152031124,100.0,444 WOODWARD RD PROVIDENCE,Parkview Condominiums 444 Woodward Rd (NP)
222,"230 S Main St, Providence, RI",Plantation The,2019-03-22,['cd1990/entry/1990_Page_87 (2)_73.png'],100.0,APARTMENTS AND TUWN BUUDED CONTD,41.822670715692,-71.40525745207455,100.0,230 SOUTH MAIN ST PROVIDENCE,Plantation The 230 S Main St
223,"73 Graham St, Providence, RI",Pleasant Ridge Apartments,2019-03-22,['cd1990/entry/1990_Page_87 (2)_74.png'],100.0,APARTMENTS AND TUWN BUUDED CONTD,41.84045019082209,-71.40775695288622,100.0,73 GRAHAM ST PROVIDENCE,Pleasant Ridge Apartments 73 Graham St
224,"10 Padelford St, Providence, RI",Pleasant Ridge Apartments,2019-03-22,['cd1990/entry/1990_Page_87 (2)_75.png'],100.0,APARTMENTS AND TUWN BUUDED CONTD,41.839791000020654,-71.4061560682819,100.0,10 PADELFORD ST PROVIDENCE,Pleasant Ridge Apartments 10 Padelford St
225,"3 Western St, Providence, RI",Pleasant Ridge Apartments,2019-03-22,['cd1990/entry/1990_Page_87 (2)_76.png'],100.0,APARTMENTS AND TUWN BUUDED CONTD,41.839755043090804,-71.4052273452891,100.0,3 WESTERN ST PROVIDENCE,Pleasant Ridge Apartments 3 Western St
226,"234 President Ave, Providence, RI",President Apartments,2019-03-22,['cd1990/entry/1990_Page_87 (2)_78.png'],100.0,APARTMENTS AND TUWN BUUDED CONTD,41.8363139829364,-71.3859163395199,100.0,234 PRESIDENT AVE PROVIDENCE,President Apartments 234 President Av
227,"135 Parade St, Providence, RI",Preston Apartments The,2019-03-22,['cd1990/entry/1990_Page_87 (2)_79.png'],100.0,APARTMENTS AND TUWN BUUDED CONTD,41.811726741536276,-71.43106788741501,100.0,135 PARADE ST PROVIDENCE,Preston Apartments The 135 Parade St
228,"490 Angell St, Providence, RI",Primavera Apartments,2019-03-22,['cd1990/entry/1990_Page_87 (2)_80.png'],100.0,APARTMENTS AND TUWN BUUDED CONTD,41.83012764219859,-71.38799161617965,100.0,490 ANGELL ST PROVIDENCE,Primavera Apartments 490 Angell St
229,"16 Adelaide Ave, Providence, RI",Princess Sweetgrass House 451 Friendship St Providence House,2019-03-22,"['cd1990/entry/1990_Page_87 (2)_81.png', 'cd1990/entry/1990_Page_87 (2)_82.png']",100.0,APARTMENTS AND TUWN BUUDED CONTD,41.79861109468542,-71.41606840811187,100.0,16 ADELAIDE AVE PROVIDENCE,Princess Sweetgrass House 451 Friendship St Providence House 16] Adelaide Av
230,"100 Broad St, Providence, RI",PROVIDENCE HOUSING AUTHORITY,2019-03-22,"['cd1990/entry/1990_Page_87 (3)_3.png', 'cd1990/entry/1990_Page_87 (3)_4.png', 'cd1990/entry/1990_Page_87 (3)_5.png']",100.0,APARTMENTS AND TUWN BUUDED CONTD,41.81730966281647,-71.41690988039531,100.0,100 BROAD ST PROVIDENCE,"PROVIDENCE HOUSING AUTHORITY 100 Broad St (02908), Tel 751-6400"
231,"8 Somerset St, Providence, RI",Regal Arms Apartments,2019-03-22,['cd1990/entry/1990_Page_87 (3)_6.png'],100.0,APARTMENTS AND TUWN BUUDED CONTD,41.81331891500849,-71.42116055369169,100.0,8 SOMERSET ST PROVIDENCE,Regal Arms Apartments 8 Somerset St
232,"2 Jackson Walkway, Providence, RI",Regency West Apartments,2019-03-22,"['cd1990/entry/1990_Page_87 (3)_9.png', 'cd1990/entry/1990_Page_87 (3)_10.png']",100.0,APARTMENTS AND TUWN BUUDED CONTD,41.81881478712403,-71.41554934060939,93.0,2 JACKSON WALKWAY PROVIDENCE,Regency West Apartments 2w Jackson Walkway
233,"176 Atlantic Ave, Providence, RI",Regina Apartments,2019-03-22,['cd1990/entry/1990_Page_87 (3)_11.png'],100.0,APARTMENTS AND TUWN BUUDED CONTD,41.797350506863495,-71.42255389748406,100.0,176 ATLANTIC AVE PROVIDENCE,Regina Apartments 176 Atlantic Av
234,"993 Manton Ave, Providence, RI",Riveredge Village Associates,2019-03-22,['cd1990/entry/1990_Page_87 (3)_12.png'],100.0,APARTMENTS AND TUWN BUUDED CONTD,41.83309491819278,-71.47021106026763,100.0,993 MANTON AVE PROVIDENCE,Riveredge Village Associates 993 Manton Av
235,"2 Smithfield Rd, Providence, RI",Royal Villa Apartments,2019-03-22,['cd1990/entry/1990_Page_87 (3)_13.png'],100.0,APARTMENTS AND TUWN BUUDED CONTD,41.85425907461561,-71.44688975050218,100.0,2 SMITHFIELD RD PROVIDENCE,Royal Villa Apartments 2 Smithfield Rd
236,"300 Elmwood Ave, Providence, RI",(NP) Rvan Properties,2019-03-22,['cd1990/entry/1990_Page_87 (3)_14.png'],100.0,APARTMENTS AND TUWN BUUDED CONTD,41.804394892559586,-71.42540286309224,100.0,300 ELMWOOD AVE PROVIDENCE,(NP)\nRvan Properties 300 Elmwood Av
237,"626 Smithfield Rd, Providence, RI",St James Condominiums,2019-03-22,"['cd1990/entry/1990_Page_87 (3)_15.png', 'cd1990/entry/1990_Page_87 (3)_16.png']",100.0,APARTMENTS AND TUWN BUUDED CONTD,41.866163740833144,-71.47056130656854,100.0,626 SMITHFIELD RD PROVIDENCE,St James Condominiums 626 Smithfield Rd (NP)
238,"630 Smithfield Rd, Providence, RI",St James Pointe Apartments,2019-03-22,"['cd1990/entry/1990_Page_87 (3)_17.png', 'cd1990/entry/1990_Page_87 (3)_18.png']",100.0,APARTMENTS AND TUWN BUUDED CONTD,41.86649113270633,-71.47084637087897,100.0,630 SMITHFIELD RD PROVIDENCE,St James Pointe Apartments 630 Smithfield Rd (NP)
239,"70 Peace St, Providence, RI",Sheraton Manor Apartments,2019-03-22,['cd1990/entry/1990_Page_87 (3)_19.png'],100.0,APARTMENTS AND TUWN BUUDED CONTD,41.80652597663659,-71.42269543392243,100.0,70 PEACE ST PROVIDENCE,Sheraton Manor Apartments 70 Peace St
240,"3 Updike St, Providence, RI",Sheraton Manor Apartments,2019-03-22,['cd1990/entry/1990_Page_87 (3)_20.png'],100.0,APARTMENTS AND TUWN BUUDED CONTD,41.80652644722992,-71.4225453985379,100.0,3 UPDIKE ST PROVIDENCE,Sheraton Manor Apartments 3 Updike St
241,"100 Atwells Ave, Providence, RI",Sister Dominica Manor (Prov Housing Auth),2019-03-22,"['cd1990/entry/1990_Page_87 (3)_21.png', 'cd1990/entry/1990_Page_87 (3)_22.png']",100.0,APARTMENTS AND TUWN BUUDED CONTD,41.82313003680224,-71.42117352089797,100.0,100 ATWELLS AVE PROVIDENCE,Sister Dominica Manor (Prov Housing Auth) 100 Atwells Av
242,"250 Smithfield Rd, Providence, RI",Smithfield Manor Apartments,2019-03-22,"['cd1990/entry/1990_Page_87 (3)_23.png', 'cd1990/entry/1990_Page_87 (3)_24.png']",100.0,APARTMENTS AND TUWN BUUDED CONTD,41.85824954224736,-71.45706023334323,100.0,250 SMITHFIELD RD PROVIDENCE,Smithfield Manor Apartments 250 Smithfield Rd (NP)
243,"10 Josephine St, Providence, RI",South Hill Apartments,2019-03-22,['cd1990/entry/1990_Page_87 (3)_25.png'],100.0,APARTMENTS AND TUWN BUUDED CONTD,41.861329392786914,-71.42269265724195,100.0,10 JOSEPHINE ST PROVIDENCE,South Hill Apartments 10 Josephine St (NP)
244,"116 Evergreen St, Providence, RI",South Lawn Palms,2019-03-22,['cd1990/entry/1990_Page_87 (3)_26.png'],100.0,APARTMENTS AND TUWN BUUDED CONTD,41.8448216841486,-71.40167699137335,100.0,116 EVERGREEN ST PROVIDENCE,South Lawn Palms 116 Evergreen St
245,"20 Mcguire Rd, Providence, RI",Spring Villa Apartments (S K Management Co),2019-03-22,"['cd1990/entry/1990_Page_87 (3)_27.png', 'cd1990/entry/1990_Page_87 (3)_28.png']",100.0,APARTMENTS AND TUWN BUUDED CONTD,41.86155480474519,-71.47107374702811,89.0,20 MCGUIRE RD PROVIDENCE,Spring Villa Apartments (S K Management Co) 20 Mc Guire Rd (NP)
246,"58 Taft Ave, Providence, RI",Standish Apartments The,2019-03-22,['cd1990/entry/1990_Page_87 (3)_31.png'],100.0,APARTMENTS AND TUWN BUUDED CONTD,41.86577043084195,-71.44805980753483,100.0,58 TAFT AVE PROVIDENCE,Standish Apartments The 58 Taft Av
247,"353 Angell St, Providence, RI",Stillonian Apartments,2019-03-22,['cd1990/entry/1990_Page_87 (3)_32.png'],100.0,APARTMENTS AND TUWN BUUDED CONTD,41.82905211040594,-71.39341651149678,100.0,353 ANGELL ST PROVIDENCE,Stillonian Apartments 353 Angell St
248,"156 Putnam St, Providence, RI",Stone Crest Manor,2019-03-22,['cd1990/entry/1990_Page_87 (3)_33.png'],100.0,APARTMENTS AND TUWN BUUDED CONTD,41.8242998149106,-71.44388083416065,100.0,156 PUTNAM ST PROVIDENCE,Stone Crest Manor 156 Putnam St
249,"675 Elmwood Ave, Providence, RI",Stratford House,2019-03-22,['cd1990/entry/1990_Page_87 (3)_36.png'],100.0,APARTMENTS AND TUWN BUUDED CONTD,41.79366973332668,-71.42386602919854,100.0,675 ELMWOOD AVE PROVIDENCE,Stratford House 675 Elmwood Av
250,"380 Sunset Ave, Providence, RI",Sunset Apartments,2019-03-22,['cd1990/entry/1990_Page_87 (3)_37.png'],100.0,APARTMENTS AND TUWN BUUDED CONTD,41.86146812532696,-71.46935414650778,100.0,380 SUNSET AVE PROVIDENCE,Sunset Apartments 380 Sunset Av (NP)
251,"349 Sunset Ave, Providence, RI",Sunset Manor Apartments,2019-03-22,['cd1990/entry/1990_Page_87 (3)_38.png'],100.0,APARTMENTS AND TUWN BUUDED CONTD,41.861181043224335,-71.4691522495993,100.0,349 SUNSET AVE PROVIDENCE,Sunset Manor Apartments 349 Sunset Av
252,"415 Sunset Ave, Providence, RI",(NP) Sunset Terrace Apartments,2019-03-22,"['cd1990/entry/1990_Page_87 (3)_39.png', 'cd1990/entry/1990_Page_87 (3)_40.png']",100.0,APARTMENTS AND TUWN BUUDED CONTD,41.86178187219989,-71.46924605449884,100.0,415 SUNSET AVE PROVIDENCE,(NP)\nSunset Terrace Apartments 415 Sunset Av (NP)
253,"230 Chad Brown St, Providence, RI",Sunset Village,2019-03-22,['cd1990/entry/1990_Page_87 (3)_41.png'],100.0,APARTMENTS AND TUWN BUUDED CONTD,41.84025014369222,-71.42442009054574,100.0,230 CHAD BROWN ST PROVIDENCE,Sunset Village 230 Chad Brown St
254,"25 Sunbury St, Providence, RI",Sunside Apartments,2019-03-22,['cd1990/entry/1990_Page_87 (3)_42.png'],100.0,APARTMENTS AND TUWN BUUDED CONTD,41.84935275413119,-71.43427180909303,100.0,25 SUNBURY ST PROVIDENCE,Sunside Apartments 25 Sunbury St
255,"10 Tanglewood Ln, Providence, RI",Tanglewood Apartments,2019-03-22,['cd1990/entry/1990_Page_87 (3)_43.png'],100.0,APARTMENTS AND TUWN BUUDED CONTD,41.86862764340775,-71.46165651008874,93.5,10 TANGLEWOOD LN PROVIDENCE,Tanglewood Apartments 10 Tanglewood La
256,"64 Tell St, Providence, RI",(NP) Tell Place Condominiums,2019-03-22,['cd1990/entry/1990_Page_87 (3)_44.png'],100.0,APARTMENTS AND TUWN BUUDED CONTD,41.82190470592705,-71.4321835213491,100.0,64 TELL ST PROVIDENCE,(NP)\nTell Place Condominiums 64 Tell St
257,"25 Wentworth St, Providence, RI",Town Of N Prov Dept Of Pub Servs,2019-03-22,"['cd1990/entry/1990_Page_87 (3)_45.png', 'cd1990/entry/1990_Page_87 (3)_46.png']",100.0,APARTMENTS AND TUWN BUUDED CONTD,41.860424199641976,-71.44649210448875,100.0,25 WENTWORTH ST PROVIDENCE,Town Of N Prov Dept Of Pub Servs 25 Wentworth St (NP)
258,"128 Prudence Ave, Providence, RI",Townhouses,2019-03-22,['cd1990/entry/1990_Page_87 (3)_47.png'],100.0,APARTMENTS AND TUWN BUUDED CONTD,41.80625071953091,-71.45935955980212,100.0,128 PRUDENCE AVE PROVIDENCE,Townhouses 128 Prudence Av
259,"1605 Douglas Ave, Providence, RI",Twin River Apartments,2019-03-22,"['cd1990/entry/1990_Page_87 (3)_48.png', 'cd1990/entry/1990_Page_87 (3)_49.png']",100.0,APARTMENTS AND TUWN BUUDED CONTD,41.86844972676071,-71.46060947320643,100.0,1605 DOUGLAS AVE PROVIDENCE,Twin River Apartments 1605 Douglas Av (NP)
260,"50 Blackstone Blvd, Providence, RI",University Apartments (Bilodeau Property Mgmt),2019-03-22,"['cd1990/entry/1990_Page_87 (3)_50.png', 'cd1990/entry/1990_Page_87 (3)_51.png']",100.0,APARTMENTS AND TUWN BUUDED CONTD,41.834526812014005,-71.38442136611945,100.0,50 BLACKSTONE BLVD PROVIDENCE,University Apartments (Bilodeau Property Mgmt) 50 Blackstone Blvd
261,"225 University Ave, Providence, RI",University Apartments (Bilodeau Property Mgmt),2019-03-22,"['cd1990/entry/1990_Page_87 (3)_52.png', 'cd1990/entry/1990_Page_87 (3)_53.png']",100.0,APARTMENTS AND TUWN BUUDED CONTD,41.83454349445581,-71.38514526324384,100.0,225 UNIVERSITY AVE PROVIDENCE,University Apartments (Bilodeau Property Mgmt) 225 University Av
262,"1 Thomas Olney Com, Providence, RI",University Heights Associates,2019-03-22,"['cd1990/entry/1990_Page_87 (3)_54.png', 'cd1990/entry/1990_Page_87 (3)_55.png']",100.0,APARTMENTS AND TUWN BUUDED CONTD,41.83535466801655,-71.40762330055301,100.0,1 THOMAS OLNEY COMMON ST PROVIDENCE,University Heights Associates 1 Thomas Olney Commo
263,"265 Bowen St, Providence, RI",University Park Condominium,2019-03-22,['cd1990/entry/1990_Page_87 (3)_56.png'],100.0,APARTMENTS AND TUWN BUUDED CONTD,41.830823995639506,-71.39975362862421,100.0,265 BOWEN ST PROVIDENCE,University Park Condominium 265 Bowen St
264,"60 Urban Ave, Providence, RI",Villa Miranda (Real Estate Property Mgmt),2019-03-22,"['cd1990/entry/1990_Page_87 (3)_57.png', 'cd1990/entry/1990_Page_87 (3)_58.png']",100.0,APARTMENTS AND TUWN BUUDED CONTD,41.86820600280011,-71.42033223375822,100.0,60 URBAN AVE PROVIDENCE,Villa Miranda (Real Estate Property Mgmt) 60 Urban Av (NP)
265,"320 Wayland Ave, Providence, RI",Washington Apartments,2019-03-22,['cd1990/entry/1990_Page_87 (3)_59.png'],100.0,APARTMENTS AND TUWN BUUDED CONTD,41.833509797941865,-71.38898801861619,100.0,320 WAYLAND AVE PROVIDENCE,Washington Apartments 320 Wayland Av
266,"98 Irving Ave, Providence, RI",Washington Apartments The,2019-03-22,['cd1990/entry/1990_Page_87 (3)_60.png'],100.0,APARTMENTS AND TUWN BUUDED CONTD,41.8332990257469,-71.38888500778471,100.0,98 IRVING AVE PROVIDENCE,Washington Apartments The 98 Irving Av
267,"228 Waterman St, Providence, RI",Waterman Associate Apartments,2019-03-22,"['cd1990/entry/1990_Page_87 (3)_61.png', 'cd1990/entry/1990_Page_87 (3)_62.png']",100.0,APARTMENTS AND TUWN BUUDED CONTD,41.828672069936324,-71.38840332494449,100.0,228 WATERMAN ST PROVIDENCE,Waterman Associate Apartments 228 Waterman St
268,"126 Waterman St, Providence, RI",Waterman Manor The,2019-03-22,['cd1990/entry/1990_Page_87 (3)_65.png'],100.0,APARTMENTS AND TUWN BUUDED CONTD,41.82758608421053,-71.39848948057863,100.0,126 WATERMAN ST PROVIDENCE,Waterman Manor The 126 Waterman St
269,"102 Wayland Ave, Providence, RI",Watson Apartments,2019-03-22,['cd1990/entry/1990_Page_87 (3)_66.png'],100.0,APARTMENTS AND TUWN BUUDED CONTD,41.82660920127479,-71.38858802990862,100.0,102 WAYLAND AVE PROVIDENCE,Watson Apartments 102 Wayland Av
270,"500 Angell St, Providence, RI",Wayland Manor,2019-03-22,['cd1990/entry/1990_Page_87 (3)_67.png'],100.0,APARTMENTS AND TUWN BUUDED CONTD,41.830312304710084,-71.38752483425469,100.0,500 ANGELL ST PROVIDENCE,Wayland Manor 500 Angell St
271,"15 Elmgrove Ave, Providence, RI",Wayland Plaza,2019-03-22,['cd1990/entry/1990_Page_87 (3)_68.png'],100.0,APARTMENTS AND TUWN BUUDED CONTD,41.83037704574755,-71.38942923129912,100.0,15 ELMGROVE AVE PROVIDENCE,Wayland Plaza 15 Elmgrove Av
272,"542 Angell St, Providence, RI",Wayland Terrace Condominiums,2019-03-22,['cd1990/entry/1990_Page_87 (3)_69.png'],100.0,APARTMENTS AND TUWN BUUDED CONTD,41.83064263542099,-71.3857713583305,100.0,542 ANGELL ST PROVIDENCE,Wayland Terrace Condominiums 542 Angell St
273,"11 Medway St, Providence, RI",Weiss James V,2019-03-22,['cd1990/entry/1990_Page_87 (3)_70.png'],100.0,APARTMENTS AND TUWN BUUDED CONTD,41.82852247662035,-71.39253027997194,100.0,11 MEDWAY ST PROVIDENCE,Weiss James V 11 Medway St
274,"25 Wentworth St, Providence, RI",Wentworth Apartments,2019-03-22,"['cd1990/entry/1990_Page_87 (3)_71.png', 'cd1990/entry/1990_Page_87 (3)_72.png']",100.0,APARTMENTS AND TUWN BUUDED CONTD,41.860424199641976,-71.44649210448875,100.0,25 WENTWORTH ST PROVIDENCE,Wentworth Apartments 25 Wentworth St (NP)
275,"48 Wesleyan Ave, Providence, RI",Wesleyan Apartments,2019-03-22,['cd1990/entry/1990_Page_87 (3)_73.png'],100.0,APARTMENTS AND TUWN BUUDED CONTD,41.80787347382741,-71.4198841021047,100.0,48 WESLEYAN AVE PROVIDENCE,Wesleyan Apartments 48 Wesleyan Av
276,"153 Obed Ave, Providence, RI",West Hill Manor,2019-03-22,['cd1990/entry/1990_Page_87 (3)_74.png'],100.0,APARTMENTS AND TUWN BUUDED CONTD,41.866956153675524,-71.42285054586566,100.0,153 OBED AVE PROVIDENCE,West Hill Manor 153 Obed Av (NP)
277,"2 Cahir St, Providence, RI",Westminster Place,2019-03-22,['cd1990/entry/1990_Page_87 (3)_75.png'],100.0,APARTMENTS AND TUWN BUUDED CONTD,41.81827153888022,-71.42012413175446,100.0,2 CAHIR ST PROVIDENCE,Westminster Place 2 Cahir St
278,"212 Waterman St, Providence, RI",White Max L Apartments,2019-03-22,['cd1990/entry/1990_Page_87 (3)_76.png'],100.0,APARTMENTS AND TUWN BUUDED CONTD,41.828418739477094,-71.38981749842475,100.0,212 WATERMAN ST PROVIDENCE,White Max L Apartments 212 Waterman St
279,"78 Whitmarsh St, Providence, RI",Whitmarsh Apartments,2019-03-22,['cd1990/entry/1990_Page_87 (3)_79.png'],100.0,APARTMENTS AND TUWN BUUDED CONTD,41.805949900635234,-71.42315925542967,100.0,78 WHITMARSH ST PROVIDENCE,Whitmarsh Apartments 78 Whitmarsh St
280,"109 Bridgham St, Providence, RI",Wiggin Village,2019-03-22,['cd1990/entry/1990_Page_87 (3)_80.png'],100.0,APARTMENTS AND TUWN BUUDED CONTD,41.815373628586684,-71.42758086764394,100.0,109 BRIDGHAM ST PROVIDENCE,Wiggin Village 109 Bridgham St
281,"1108 Westminster St, Providence, RI",Wiggin Village,2019-03-22,['cd1990/entry/1990_Page_87 (3)_81.png'],100.0,APARTMENTS AND TUWN BUUDED CONTD,41.81704204591352,-71.42689289350083,100.0,1108 WESTMINSTER ST PROVIDENCE,Wiggin Village 1108 Westminster St
282,"7 Brook St, Providence, RI",Windwood Apartments,2019-03-22,['cd1990/entry/1990_Page_88 (1)_3.png'],100.0,APARTMENTS AND TOWN HOUSES CONTD,41.81858452540724,-71.39772702215156,100.0,7 BROOK ST PROVIDENCE,Windwood Apartments 7 Brook St (NP)
283,"378 Elmwood Ave, Providence, RI",BICKFORD APPLIANCE CO,2019-03-22,"['cd1990/entry/1990_Page_88 (1)_9.png', 'cd1990/entry/1990_Page_88 (1)_10.png']",100.0,*APPLIANCES- HOUSEHOLD,41.80175662830123,-71.42618414146685,100.0,378 ELMWOOD AVE PROVIDENCE,"BICKFORD APPLIANCE CO 378 Elmwood Av (02907), Tel 467-4630"
284,"224 Atwells Ave, Providence, RI",BROADWAY APPLIANCE INC,2019-03-22,"['cd1990/entry/1990_Page_88 (1)_11.png', 'cd1990/entry/1990_Page_88 (1)_12.png', 'cd1990/entry/1990_Page_88 (1)_13.png']",100.0,*APPLIANCES- HOUSEHOLD,41.82345512296724,-71.42548886701806,100.0,224 ATWELLS AVE PROVIDENCE,"BROADWAY APPLIANCE INC 224 Atwells Av (02903), Tel (401) 421- 6264"
285,HARDCODE,Andolfo Appraisal Associates Inc,2019-03-22,"['cd1990/entry/1990_Page_88 (1)_15.png', 'cd1990/entry/1990_Page_88 (1)_16.png']",100.0,APPRAISERS,41.824645,-71.409938,100.0,1 TURKS HEAD PL PROVIDENCE,Andolfo Appraisal Associates Inc 1 Turks Head Pl Rm 1450
286,"1228 Westminster St, Providence, RI",Atlantic Appraisers,2019-03-22,['cd1990/entry/1990_Page_88 (1)_17.png'],100.0,APPRAISERS,41.816814747737794,-71.42906446405154,100.0,1228 WESTMINSTER ST PROVIDENCE,Atlantic Appraisers 1228 Westminster St
287,"449 Hartford Ave, Providence, RI",Bellotti Associates & Appraisal,2019-03-22,"['cd1990/entry/1990_Page_88 (1)_18.png', 'cd1990/entry/1990_Page_88 (1)_19.png']",100.0,APPRAISERS,41.818632313312904,-71.45870658774352,100.0,449 HARTFORD AVE PROVIDENCE,Bellotti Associates & Appraisal 449 Hartford Av
288,"40 Bradford St, Providence, RI",Bradford Auto Appraisers,2019-03-22,['cd1990/entry/1990_Page_88 (1)_20.png'],100.0,APPRAISERS,41.82407313359572,-71.4216033272275,100.0,40 BRADFORD ST PROVIDENCE,Bradford Auto Appraisers 40 Bradford St
289,"16 Woodbine St, Providence, RI",Mels Estimating Service,2019-03-22,['cd1990/entry/1990_Page_88 (1)_21.png'],100.0,APPRAISERS,41.845808719944664,-71.4048171849883,100.0,16 WOODBINE ST PROVIDENCE,Mels Estimating Service 16 Woodbine St
290,"82 Killingly St, Providence, RI",Rossi Thos P,2019-03-22,['cd1990/entry/1990_Page_88 (1)_22.png'],100.0,APPRAISERS,41.813916562318475,-71.4614615633173,100.0,82 KILLINGLY ST PROVIDENCE,Rossi Thos P 82 Killingly St
291,"365 Eddy St, Providence, RI",Schaeffer Bates Mc Donough Inc,2019-03-22,['cd1990/entry/1990_Page_88 (1)_23.png'],100.0,APPRAISERS,41.8180765006682,-71.40740026239736,100.0,365 EDDY ST PROVIDENCE,Schaeffer Bates Mc Donough Inc 365 Eddy St
292,"90 Isabella Ave, Providence, RI",Tudino Anthony,2019-03-22,['cd1990/entry/1990_Page_88 (1)_24.png'],100.0,APPRAISERS,41.84980077266913,-71.4463522669464,100.0,90 ISABELLA AVE PROVIDENCE,Tudino Anthony 90 Isabella Av
293,"385 Wickenden St, Providence, RI",Aaua-Life Aquarium,2019-03-22,['cd1990/entry/1990_Page_88 (1)_26.png'],100.0,AQUARIUMS AND SUPPLIES,41.81971197625296,-71.39542257537161,100.0,385 WICKENDEN ST PROVIDENCE,Aaua-Life Aquarium 385 Wickenden St
294,"905 N Main St, Providence, RI",Rhode Island Aquarium Center Inc,2019-03-22,"['cd1990/entry/1990_Page_88 (1)_27.png', 'cd1990/entry/1990_Page_88 (1)_28.png']",100.0,AQUARIUMS AND SUPPLIES,41.84522275779502,-71.40586692597029,100.0,905 NORTH MAIN ST PROVIDENCE,Rhode Island Aquarium Center Inc 905 N Main St
295,"38 Alton St, Providence, RI",Abdelmessih Emad,2019-03-22,['cd1990/entry/1990_Page_88 (1)_30.png'],100.0,ARCHITECTS,41.82983921572928,-71.44051148197775,100.0,38 ALTON ST PROVIDENCE,Abdelmessih Emad 38 Alton St
296,"130 Westminster St, Providence, RI",American Institute Of Architects,2019-03-22,"['cd1990/entry/1990_Page_88 (1)_31.png', 'cd1990/entry/1990_Page_88 (1)_32.png']",100.0,ARCHITECTS,41.824116021781634,-71.41083756529554,100.0,130 WESTMINSTER ST PROVIDENCE,American Institute Of Architects 130 Westminster St Rm 68
297,"2 Rhode Island Ave, Providence, RI",Ames P Foerd,2019-03-22,['cd1990/entry/1990_Page_88 (1)_33.png'],100.0,ARCHITECTS,41.83021191225308,-71.38436939269043,100.0,2 RHODE ISLAND AVE PROVIDENCE,Ames P Foerd 2 Rhode Island Av
298,"54 E Manning St, Providence, RI",Anderson Mark,2019-03-22,['cd1990/entry/1990_Page_88 (1)_34.png'],100.0,ARCHITECTS,41.827215441127535,-71.39145580584125,100.0,54 EAST MANNING ST PROVIDENCE,Anderson Mark 54 E Manning St
299,"321 Hope St, Providence, RI",Architectural Interiors,2019-03-22,['cd1990/entry/1990_Page_88 (1)_35.png'],100.0,ARCHITECTS,41.83425289531082,-71.40131579364653,100.0,321 HOPE ST PROVIDENCE,Architectural Interiors 321 Hope St
300,"1868 Mineral Spring Ave, Providence, RI",Architectural & Interiors,2019-03-22,"['cd1990/entry/1990_Page_88 (1)_36.png', 'cd1990/entry/1990_Page_88 (1)_37.png']",100.0,ARCHITECTS,41.86101083557382,-71.4643070223729,100.0,1868 MINERAL SPRING AV PROVIDENCE,Architectural & Interiors 1868 Mineral Spring Av (NP) Rm 101
301,"76 Dorrance St, Providence, RI",Architecture & Development,2019-03-22,"['cd1990/entry/1990_Page_88 (1)_38.png', 'cd1990/entry/1990_Page_88 (1)_39.png']",100.0,ARCHITECTS,41.82315731378819,-71.41098353520472,100.0,76 DORRANCE ST PROVIDENCE,Architecture & Development 76 Dorrance St Rm 200
302,"741 Westminster St, Providence, RI",Baum Leonard J,2019-03-22,['cd1990/entry/1990_Page_88 (1)_40.png'],100.0,ARCHITECTS,41.81827331509454,-71.42024536431263,100.0,741 WESTMINSTER ST PROVIDENCE,Baum Leonard J 741 Westminster St
303,"127 Lloyd Ave, Providence, RI",Buffum Wm P Jr,2019-03-22,['cd1990/entry/1990_Page_88 (1)_41.png'],100.0,ARCHITECTS,41.831422219524924,-71.40206355266564,100.0,127 LLOYD AVE PROVIDENCE,Buffum Wm P Jr 127 Lloyd Av
304,"242 Admiral St, Providence, RI",Castellucci Galli Corp,2019-03-22,['cd1990/entry/1990_Page_88 (1)_42.png'],100.0,ARCHITECTS,41.84465626106806,-71.4242931682586,100.0,242 ADMIRAL ST PROVIDENCE,Castellucci Galli Corp 242 Admiral St
305,"5 Benefit St, Providence, RI",Cate Samuel M,2019-03-22,['cd1990/entry/1990_Page_88 (1)_43.png'],100.0,ARCHITECTS,41.83442189621895,-71.40977761644335,100.0,5 BENEFIT ST PROVIDENCE,Cate Samuel M 5 Benefit St
306,"90 Woodbine St, Providence, RI",Corria Daniel,2019-03-22,['cd1990/entry/1990_Page_88 (1)_44.png'],100.0,ARCHITECTS,41.84541790576329,-71.40127069486584,100.0,90 WOODBINE ST PROVIDENCE,Corria Daniel 90 Woodbine St
307,"236 Westminster St, Providence, RI",Cruise Kent & Partners,2019-03-22,"['cd1990/entry/1990_Page_88 (1)_45.png', 'cd1990/entry/1990_Page_88 (1)_46.png']",100.0,ARCHITECTS,41.82280413998406,-71.41261379063988,100.0,236 WESTMINSTER ST PROVIDENCE,Cruise Kent & Partners 236 Westminster St Rm 604
308,"116 Chestnut St, Providence, RI",Daughn-Salisbury Archts,2019-03-22,['cd1990/entry/1990_Page_88 (1)_47.png'],100.0,ARCHITECTS,41.818665775300104,-71.41099812573535,100.0,116 CHESTNUT ST PROVIDENCE,Daughn-Salisbury Archts 116 Chestnut St
309,"424 Valley St, Providence, RI",Design Group,2019-03-22,['cd1990/entry/1990_Page_88 (1)_48.png'],100.0,ARCHITECTS,41.82801313484798,-71.4352045678329,100.0,424 VALLEY ST PROVIDENCE,Design Group 424 Valley St
310,"316 Pocasset Ave, Providence, RI",Di Benedetto Associates,2019-03-22,['cd1990/entry/1990_Page_88 (1)_49.png'],100.0,ARCHITECTS,41.806353656000866,-71.45705408312736,100.0,316 POCASSET AVE PROVIDENCE,Di Benedetto Associates 316 Pocasset Av Rm 3
311,"85 Sunset Ave, Providence, RI",Di Benedetto Mario F,2019-03-22,['cd1990/entry/1990_Page_88 (1)_50.png'],100.0,ARCHITECTS,41.81540706521186,-71.4670041949195,100.0,85 SUNSET AVE PROVIDENCE,Di Benedetto Mario F 85 Sunset Av
312,"207 Regent Ave, Providence, RI",Ehrenberg Scott M,2019-03-22,['cd1990/entry/1990_Page_88 (1)_51.png'],100.0,ARCHITECTS,41.829499297006734,-71.44210831883056,100.0,207 REGENT AVE PROVIDENCE,Ehrenberg Scott M 207 Regent Av
313,"30 Savoy St, Providence, RI",Evans Rosea,2019-03-22,['cd1990/entry/1990_Page_88 (1)_52.png'],100.0,ARCHITECTS,41.84428022661046,-71.39593959808438,100.0,30 SAVOY ST PROVIDENCE,Evans Roseann 30 Savoy St
314,"150 Chestnut St, Providence, RI",Extrados Architects Ltd,2019-03-22,['cd1990/entry/1990_Page_88 (1)_53.png'],100.0,ARCHITECTS,41.81822012988727,-71.40996547254156,100.0,150 CHESTNUT ST PROVIDENCE,Extrados Architects Ltd 150 Chestnut St
315,"21 Dexterdale Rd, Providence, RI",Fink Chas B,2019-03-22,['cd1990/entry/1990_Page_88 (1)_54.png'],100.0,ARCHITECTS,41.848061418497764,-71.39882127730694,100.0,21 DEXTERDALE RD PROVIDENCE,Fink Chas B 21 Dexterdale Rd
316,"222 Richmond St, Providence, RI",Fink Charles B,2019-03-22,['cd1990/entry/1990_Page_88 (1)_55.png'],100.0,ARCHITECTS,41.818966831951656,-71.40887605620081,100.0,222 RICHMOND ST PROVIDENCE,Fink Charles B 222 Richmond St Rm 201
317,"235 Promenade St, Providence, RI",GAUDET & ASSOCIATES,2019-03-22,"['cd1990/entry/1990_Page_88 (1)_56.png', 'cd1990/entry/1990_Page_88 (1)_57.png', 'cd1990/entry/1990_Page_88 (1)_58.png']",100.0,ARCHITECTS,41.828472996280745,-71.4196161674227,100.0,235 PROMENADE ST PROVIDENCE,"GAUDET & ASSOCIATES 235 Promenade St, Rm 131 (02908), Tel (401) 421-1798"
318,"235 Promenade St, Providence, RI",Goudet Associates,2019-03-22,['cd1990/entry/1990_Page_88 (1)_59.png'],100.0,ARCHITECTS,41.828472996280745,-71.4196161674227,100.0,235 PROMENADE ST PROVIDENCE,Goudet Associates 235 Promenade St Rm 120
319,"174 Wickenden St, Providence, RI",Hartley John B,2019-03-22,"['cd1990/entry/1990_Page_88 (1)_60.png', 'cd1990/entry/1990_Page_88 (1)_61.png']",100.0,ARCHITECTS,41.81933376261572,-71.39972676037777,100.0,174 WICKENDEN ST PROVIDENCE,"Hartley John B 174 Wickenden St\nHAYNES IRVING B & ASSOCIATES 1 Park Row (029038), Tel 274-1555"
320,"186 Benefit St, Providence, RI",Hutchinson Dard A,2019-03-22,['cd1990/entry/1990_Page_88 (1)_64.png'],100.0,ARCHITECTS,41.82780468365761,-71.40793194951202,100.0,186 BENEFIT ST PROVIDENCE,Hutchinson Dard A 186 Benefit St Apt C
321,"66 Ardoene St, Providence, RI",Jenkins Stephen C,2019-03-22,['cd1990/entry/1990_Page_88 (1)_65.png'],100.0,ARCHITECTS,41.790930594731634,-71.42653915931417,100.0,66 ARDOENE ST PROVIDENCE,Jenkins Stephen C 66 Ardoene St
322,"219 Cole Ave, Providence, RI",Johnson Kathryn Mrs,2019-03-22,['cd1990/entry/1990_Page_88 (1)_66.png'],100.0,ARCHITECTS,41.84048826293287,-71.38873104270625,100.0,219 COLE AVE PROVIDENCE,Johnson Kathryn Mrs 219 Cole Av
323,"321 S Main St, Providence, RI",Keyes Associates,2019-03-22,['cd1990/entry/1990_Page_88 (1)_67.png'],100.0,ARCHITECTS,41.82184288086085,-71.40468712211623,100.0,321 SOUTH MAIN ST PROVIDENCE,Keyes Associates 321 S Main St
324,"1 Meeting St, Providence, RI",Kite Wm L Architects Inc,2019-03-22,['cd1990/entry/1990_Page_88 (1)_68.png'],100.0,ARCHITECTS,41.82845741163996,-71.40953706704586,100.0,1 MEETING ST PROVIDENCE,Kite Wm L Architects Inc 1 Meeting St
325,"745 Branch Ave, Providence, RI",Lamborghini & Feibelma,2019-03-22,['cd1990/entry/1990_Page_88 (1)_69.png'],100.0,ARCHITECTS,41.85375925377268,-71.42878503536748,100.0,745 BRANCH AVE PROVIDENCE,Lamborghini & Feibelman 745 Branch Av
326,"107 Bowen St, Providence, RI",Langmuir Jane K Mrs,2019-03-22,['cd1990/entry/1990_Page_88 (1)_70.png'],100.0,ARCHITECTS,41.83049671851155,-71.40603279792545,100.0,107 BOWEN ST PROVIDENCE,Langmuir Jane K Mrs 107 Bowen St
327,"30 Congdon St, Providence, RI",Lorenzo Rosa,2019-03-22,['cd1990/entry/1990_Page_88 (1)_71.png'],100.0,ARCHITECTS,41.82865914688469,-71.40683288083444,91.0,30 CONGDON ST PROVIDENCE,Lorenzo Rosa 30 Congdon 8t
328,"662 Charles St, Providence, RI",Mailozzi Assoc Inc,2019-03-22,['cd1990/entry/1990_Page_88 (1)_73.png'],100.0,ARCHITECTS,41.854694652971126,-71.42072280369639,100.0,662 CHARLES ST PROVIDENCE,Mailozzi Assoc Inc 662 Charles St
329,"221 Waterman St, Providence, RI",Markoff Henry W,2019-03-22,['cd1990/entry/1990_Page_88 (1)_74.png'],100.0,ARCHITECTS,41.82848042633291,-71.38891272069316,100.0,221 WATERMAN ST PROVIDENCE,Markoff Henry W 221 Waterman St
330,"301 Friendship St, Providence, RI",Presbrey David Architects Inc,2019-03-22,"['cd1990/entry/1990_Page_88 (2)_2.png', 'cd1990/entry/1990_Page_88 (2)_3.png']",100.0,ARCHITECTS-CUNTD,41.81537128850829,-71.41588590909305,100.0,301 FRIENDSHIP ST PROVIDENCE,Presbrey David Architects Inc 301 Friendship St
331,"1 Charles St, Providence, RI",Providence Partnership The,2019-03-22,['cd1990/entry/1990_Page_88 (2)_4.png'],100.0,ARCHITECTS-CUNTD,41.833184594736075,-71.41120514358077,100.0,1 CHARLES ST PROVIDENCE,Providence Partnership The 1 Charles St
332,"15 Meeting St, Providence, RI",Rakatansky Ira Inc,2019-03-22,['cd1990/entry/1990_Page_88 (2)_5.png'],100.0,ARCHITECTS-CUNTD,41.82849450971263,-71.40884641143764,100.0,15 MEETING ST PROVIDENCE,Rakatansky Ira Inc 15 Meeting St
333,"140 Brown St, Providence, RI",Richtmyer Shelley A,2019-03-22,['cd1990/entry/1990_Page_88 (2)_6.png'],100.0,ARCHITECTS-CUNTD,41.830707264728886,-71.40378680514327,100.0,140 BROWN ST PROVIDENCE,Richtmyer Shelley A 140 Brown St
334,"96 Garfield St, Providence, RI",Roberton Edw J Jr,2019-03-22,['cd1990/entry/1990_Page_88 (2)_7.png'],100.0,ARCHITECTS-CUNTD,41.873080572082344,-71.42495431417865,100.0,96 GARFIELD ST PROVIDENCE,Roberton Edw J Jr 96 Garfield St (NP)
335,"50 Holden St, Providence, RI",ROBINSON GREEN BERETTA CORPORATION THE,2019-03-22,"['cd1990/entry/1990_Page_88 (2)_8.png', 'cd1990/entry/1990_Page_88 (2)_9.png', 'cd1990/entry/1990_Page_88 (2)_10.png']",100.0,ARCHITECTS-CUNTD,41.83000674076704,-71.4193104928657,100.0,50 HOLDEN ST PROVIDENCE,"ROBINSON GREEN BERETTA CORPORATION THE 50 Holden St (02908), Tel (401) 272-1730"
336,"135 University Ave, Providence, RI",St Florian Associate,2019-03-22,['cd1990/entry/1990_Page_88 (2)_11.png'],100.0,ARCHITECTS-CUNTD,41.833999210517575,-71.38803690482013,100.0,135 UNIVERSITY AVE PROVIDENCE,St Florian Associate 135 University Av
337,"305 S Main St, Providence, RI",Saint Florian Associates,2019-03-22,['cd1990/entry/1990_Page_88 (2)_12.png'],100.0,ARCHITECTS-CUNTD,41.82201245400858,-71.4048402773935,100.0,305 SOUTH MAIN ST PROVIDENCE,Saint Florian Associates 305 S Main St
338,"196 Sackett St, Providence, RI",Smith Thos,2019-03-22,['cd1990/entry/1990_Page_88 (2)_13.png'],100.0,ARCHITECTS-CUNTD,41.79350025542688,-71.42057101813317,100.0,196 SACKETT ST PROVIDENCE,Smith Thos 196 Sackett St
339,"16 Moses Brown St, Providence, RI",Spirito Susan B Mrs,2019-03-22,['cd1990/entry/1990_Page_88 (2)_14.png'],100.0,ARCHITECTS-CUNTD,41.82983104892931,-71.38595995806146,100.0,16 MOSES BROWN ST PROVIDENCE,Spirito Susan B Mrs 16 Moses Brown St
340,"1 Solar St, Providence, RI",Thorp Erik R,2019-03-22,['cd1990/entry/1990_Page_88 (2)_15.png'],100.0,ARCHITECTS-CUNTD,41.822809802280645,-71.42357966706928,100.0,1 SOLAR ST PROVIDENCE,Thorp Erik R 1 Solar St
341,"741 Westminster St, Providence, RI",Twombley Peter,2019-03-22,['cd1990/entry/1990_Page_88 (2)_16.png'],100.0,ARCHITECTS-CUNTD,41.81827331509454,-71.42024536431263,100.0,741 WESTMINSTER ST PROVIDENCE,Twombley Peter 741 Westminster St
342,"83 Camp St, Providence, RI",Van Erp Chiara Mrs,2019-03-22,['cd1990/entry/1990_Page_88 (2)_17.png'],100.0,ARCHITECTS-CUNTD,41.83935297577259,-71.40405957212452,100.0,83 CAMP ST PROVIDENCE,Van Erp Chiara Mrs 83 Camp St
343,"83 Camp St, Providence, RI",Van Erp Peter,2019-03-22,['cd1990/entry/1990_Page_88 (2)_18.png'],100.0,ARCHITECTS-CUNTD,41.83935297577259,-71.40405957212452,100.0,83 CAMP ST PROVIDENCE,Van Erp Peter 83 Camp St
344,"60 Ship St, Providence, RI",Veri Albert & Associates Inc,2019-03-22,['cd1990/entry/1990_Page_88 (2)_19.png'],100.0,ARCHITECTS-CUNTD,41.81896848294122,-71.40981764254455,100.0,60 SHIP ST PROVIDENCE,Veri Albert & Associates Inc 60 Ship St
345,"76 Dorrance St, Providence, RI",Winsor David S,2019-03-22,['cd1990/entry/1990_Page_88 (2)_20.png'],100.0,ARCHITECTS-CUNTD,41.82315731378819,-71.41098353520472,100.0,76 DORRANCE ST PROVIDENCE,Winsor David S 76 Dorrance St Rm 318
346,"68 S Main St, Providence, RI",Wooding Peter H Design Associates,2019-03-22,"['cd1990/entry/1990_Page_88 (2)_21.png', 'cd1990/entry/1990_Page_88 (2)_22.png']",100.0,ARCHITECTS-CUNTD,41.82494315543649,-71.4072128540875,100.0,68 SOUTH MAIN ST PROVIDENCE,Wooding Peter H Design Associates 68 S Main St 3d Fl
347,"321 Point St, Providence, RI",KEYES ASSOCIATES,2019-03-22,"['cd1990/entry/1990_Page_88 (2)_25.png', 'cd1990/entry/1990_Page_88 (2)_26.png', 'cd1990/entry/1990_Page_88 (2)_27.png']",100.0,*ARCHITECTURAL ENGINEERS,41.814535920951755,-71.41549662750958,80.5,321 POINT STREET BRG PROVIDENCE,KEYES ASSOCIATES 321 SOUTH MAIN STREET (02803) TELEPHONE (401) 861-2900
348,"1 La Salle Dr, Providence, RI",City Civic Center,2019-03-22,['cd1990/entry/1990_Page_88 (2)_29.png'],100.0,ARENAS,41.84557428161632,-71.44269336211603,92.0,1 LA SALLE DR PROVIDENCE,City Civic Center 1 La Salle Sq
349,"312 Huxley Ave, Providence, RI",Schneider Arena,2019-03-22,['cd1990/entry/1990_Page_88 (2)_30.png'],100.0,ARENAS,41.84565595301392,-71.43292927042313,100.0,312 HUXLEY AVE PROVIDENCE,Schneider Arena 312 Huxley Av
350,"333 Eaton St, Providence, RI",Schneider Ice Arena,2019-03-22,['cd1990/entry/1990_Page_88 (2)_31.png'],100.0,ARENAS,41.84241800668902,-71.43915853073736,100.0,333 EATON ST PROVIDENCE,Schneider Ice Arena 333 Eaton St
351,"616 Broad St, Providence, RI",GENERAL ARMATURE SERVICE INC,2019-03-22,"['cd1990/entry/1990_Page_88 (2)_33.png', 'cd1990/entry/1990_Page_88 (2)_34.png', 'cd1990/entry/1990_Page_88 (2)_35.png']",100.0,ARMATURE RE-WINDING,41.80741371905527,-71.4202097020618,100.0,616 BROAD ST PROVIDENCE,"GENERAL ARMATURE SERVICE INC 616 Broad St (02907), Tels 621-0654, 351-4991"
352,"967 Westminster St, Providence, RI",L & G Armature & Son Inc,2019-03-22,"['cd1990/entry/1990_Page_88 (2)_36.png', 'cd1990/entry/1990_Page_88 (2)_37.png']",100.0,ARMATURE RE-WINDING,41.81731680775897,-71.42454356567686,100.0,967 WESTMINSTER ST PROVIDENCE,L & G Armature & Son Inc 967 Westminster St .
353,"14 Cargill St, Providence, RI",Brinks Inc,2019-03-22,['cd1990/entry/1990_Page_88 (2)_39.png'],100.0,ARMORED CAR SERVICE,41.81991170185081,-71.42242990736372,100.0,14 CARGILL ST PROVIDENCE,Brinks Inc 14 Cargill St
354,"123 Dexter St, Providence, RI",State Natl Guard Armory,2019-03-22,['cd1990/entry/1990_Page_88 (2)_41.png'],100.0,ARMORIES,41.81305373235688,-71.42988316193131,100.0,123 DEXTER ST PROVIDENCE,State Natl Guard Armory 123 Dexter St
355,"727 Hope St, Providence, RI",Alart East Gallery,2019-03-22,['cd1990/entry/1990_Page_88 (2)_43.png'],100.0,ART GALLERIES,41.846568723449906,-71.39613282513321,100.0,727 HOPE ST PROVIDENCE,Alart East Gallery 727 Hope St
356,"1200 Elmwood Ave, Providence, RI",Art Gallery,2019-03-22,['cd1990/entry/1990_Page_88 (2)_44.png'],100.0,ART GALLERIES,41.77888958240023,-71.4205505875215,100.0,1200 ELMWOOD AVE PROVIDENCE,Art Gallery 1200 Elmwood Av
357,"198 Ives St, Providence, RI",Barros Gallery & Studio,2019-03-22,['cd1990/entry/1990_Page_88 (2)_45.png'],100.0,ART GALLERIES,41.82370373106636,-71.3923313835997,100.0,198 IVES ST PROVIDENCE,Barros Gallery & Studio 198 Ives St
358,"5 Dorrance St, Providence, RI",Bert Art Gallery,2019-03-22,['cd1990/entry/1990_Page_88 (2)_46.png'],100.0,ART GALLERIES,41.82463991572729,-71.41344681732517,100.0,5 DORRANCE ST PROVIDENCE,Bert Art Gallery 5 Dorrance St Ist Fl
359,"27 Dryden Ln, Providence, RI",Dryden Galleries Ltd,2019-03-22,['cd1990/entry/1990_Page_88 (2)_47.png'],100.0,ART GALLERIES,41.84284552805862,-71.40930579627864,90.0,27 DRYDEN LN PROVIDENCE,Dryden Galleries Ltd 27 Dryden La
360,"417 Atwells Ave, Providence, RI",Fusaro Studio,2019-03-22,['cd1990/entry/1990_Page_88 (2)_48.png'],100.0,ART GALLERIES,41.82397112746279,-71.43117629840457,100.0,417 ATWELLS AVE PROVIDENCE,Fusaro Studio 417 Atwells Av
361,"218 Wickenden St, Providence, RI",J RS Fine Art,2019-03-22,['cd1990/entry/1990_Page_88 (2)_49.png'],100.0,ART GALLERIES,41.819496210760434,-71.39888910462253,100.0,218 WICKENDEN ST PROVIDENCE,J RS Fine Art 218 Wickenden St
362,"15 Meeting St, Providence, RI",Lenore Gray Gallery Inc,2019-03-22,['cd1990/entry/1990_Page_88 (2)_50.png'],100.0,ART GALLERIES,41.82849450971263,-71.40884641143764,100.0,15 MEETING ST PROVIDENCE,Lenore Gray Gallery Inc 15 Meeting St
363,"21 Planet St, Providence, RI",Planet Art Studio,2019-03-22,['cd1990/entry/1990_Page_88 (2)_51.png'],100.0,ART GALLERIES,41.823277046715255,-71.40567296150402,100.0,21 PLANET ST PROVIDENCE,Planet Art Studio 21 Planet St
364,"10 Thomas St, Providence, RI",Providence Art Club Gallery,2019-03-22,['cd1990/entry/1990_Page_88 (2)_52.png'],100.0,ART GALLERIES,41.82755433813671,-71.40897593712694,100.0,10 THOMAS ST PROVIDENCE,Providence Art Club Gallery 10 Thomas St
365,"375 Broad St, Providence, RI",Trinity Arts,2019-03-22,['cd1990/entry/1990_Page_88 (2)_53.png'],100.0,ART GALLERIES,41.81234079364201,-71.4217386674175,100.0,375 BROAD ST PROVIDENCE,Trinity Arts 375 Broad St
366,"17 Peck St, Providence, RI",Art Studios Inc The,2019-03-22,['cd1990/entry/1990_Page_88 (2)_55.png'],100.0,ART GOODS,41.82332034880071,-71.40997057602084,100.0,17 PECK ST PROVIDENCE,Art Studios Inc The 17 Peck St
367,"228 Cranston St, Providence, RI",Costa Trading Co Inc,2019-03-22,['cd1990/entry/1990_Page_88 (2)_57.png'],100.0,ART GOODS,41.81380144671098,-71.42717541099788,100.0,228 CRANSTON ST PROVIDENCE,Costa Trading Co Inc 228 Cranston St
368,"222 Academy Ave, Providence, RI",Miss Irmas,2019-03-22,['cd1990/entry/1990_Page_88 (2)_60.png'],100.0,ARTIFICIAL FLOWERS AND FRUIT DEALERS,41.83078570612731,-71.44435125608162,100.0,222 ACADEMY AVE PROVIDENCE,Miss Irmas 222 Academy Av
369,"400 Reservoir Ave, Providence, RI",California Artificial Flower Co Inc,2019-03-22,"['cd1990/entry/1990_Page_88 (3)_3.png', 'cd1990/entry/1990_Page_88 (3)_4.png']",100.0,ARTIFICIAL FLOWERS AND FRUIT MFRS,41.787865396630615,-71.43186066132027,100.0,400 RESERVOIR AVE PROVIDENCE,California Artificial Flower Co Inc 400 Reservoir Av
370,"71 Richmond St, Providence, RI",A S Two Twenty,2019-03-22,['cd1990/entry/1990_Page_88 (3)_8.png'],100.0,ARTISTS,41.82039261916862,-71.41151654163197,100.0,71 RICHMOND ST PROVIDENCE,A S Two Twenty 71 Richmond St
371,"153 Morris Ave, Providence, RI",Aisenberg Abby S Mrs,2019-03-22,['cd1990/entry/1990_Page_88 (3)_9.png'],100.0,ARTISTS,41.83725446150518,-71.39785445030802,100.0,153 MORRIS AVE PROVIDENCE,Aisenberg Abby S Mrs 153 Morris Av
372,"57 Boylston Ave, Providence, RI",Alpert Barbara O Mrs,2019-03-22,['cd1990/entry/1990_Page_88 (3)_10.png'],100.0,ARTISTS,41.8369958555838,-71.3988027455794,100.0,57 BOYLSTON AVE PROVIDENCE,Alpert Barbara O Mrs 57 Boylston Av
373,"86 Daboll St, Providence, RI",Alty Adriana,2019-03-22,['cd1990/entry/1990_Page_88 (3)_11.png'],100.0,ARTISTS,41.80413656116501,-71.42296611688876,100.0,86 DABOLL ST PROVIDENCE,Alty Adriana 86 Daboll St
374,"92 Burlington St, Providence, RI",Austin Janet,2019-03-22,['cd1990/entry/1990_Page_88 (3)_12.png'],100.0,ARTISTS,41.84775604358918,-71.39446059145853,100.0,92 BURLINGTON ST PROVIDENCE,Austin Janet 92 Burlington St
375,"21 Nisbet St, Providence, RI",Behrooz Morteza,2019-03-22,['cd1990/entry/1990_Page_88 (3)_13.png'],100.0,ARTISTS,41.82995037535192,-71.38399695210705,100.0,21 NISBET ST PROVIDENCE,Behrooz Morteza 21 Nisbet St
376,"104 Congdon St, Providence, RI",Bennett Carlyle,2019-03-22,['cd1990/entry/1990_Page_88 (3)_14.png'],100.0,ARTISTS,41.831475138976685,-71.40721611134008,100.0,104 CONGDON ST PROVIDENCE,Bennett Carlyle 104 Congdon St
377,"114 Morris Ave, Providence, RI",Bentre Howard,2019-03-22,['cd1990/entry/1990_Page_88 (3)_15.png'],100.0,ARTISTS,41.835852940089524,-71.39808684889307,100.0,114 MORRIS AVE PROVIDENCE,Bentre Howard 114 Morris Av
378,"35 Hammond St, Providence, RI",Bertholet Paul G,2019-03-22,['cd1990/entry/1990_Page_88 (3)_16.png'],100.0,ARTISTS,41.815100012229344,-71.42860904405413,100.0,35 HAMMOND ST PROVIDENCE,Bertholet Paul G 35 Hammond St
379,"40 Larch St, Providence, RI",Bush Larry,2019-03-22,['cd1990/entry/1990_Page_88 (3)_19.png'],100.0,ARTISTS,41.84266891769113,-71.40090073797047,100.0,40 LARCH ST PROVIDENCE,Bush Larry 40 Larch St
380,"32 Kenyon St, Providence, RI",Carvalho Pat,2019-03-22,['cd1990/entry/1990_Page_88 (3)_20.png'],100.0,ARTISTS,41.82170834086716,-71.42445091199087,100.0,32 KENYON ST PROVIDENCE,Carvalho Pat 32 Kenyon St
381,"182 Cypress St, Providence, RI",Clinton Robt S,2019-03-22,['cd1990/entry/1990_Page_88 (3)_21.png'],100.0,ARTISTS,41.841609381034964,-71.40074308498667,100.0,182 CYPRESS ST PROVIDENCE,Clinton Robt S 182 Cypress St
382,"51 Methyl St, Providence, RI",Cloutier Ann Mrs,2019-03-22,['cd1990/entry/1990_Page_88 (3)_22.png'],100.0,ARTISTS,41.85195209515984,-71.39215675064524,100.0,51 METHYL ST PROVIDENCE,Cloutier Ann Mrs 51 Methyl St
383,"235 Promenade St, Providence, RI",Conversions,2019-03-22,['cd1990/entry/1990_Page_88 (3)_23.png'],100.0,ARTISTS,41.828472996280745,-71.4196161674227,100.0,235 PROMENADE ST PROVIDENCE,Conversions 235 Promenade St Rm 326
